[
  {
    "name": "The Good Sauna - Abbotsford",
    "city": "Abbotsford",
    "citySlug": "abbotsford",
    "province": "British Columbia",
    "provinceSlug": "british-columbia",
    "country": "Canada",
    "street": "2281 W Railway St",
    "phone": "+1 604-803-2845",
    "latitude": 49.0429998,
    "longitude": -122.2817761,
    "rating": 5
  },
  {
    "name": "SWEAT & SHIVER - Cold Plunge & Sauna House",
    "city": "Abbotsford",
    "citySlug": "abbotsford",
    "province": "British Columbia",
    "provinceSlug": "british-columbia",
    "country": "Canada",
    "street": "2777 Gladwin Rd #105",
    "phone": "+1 604-260-0570",
    "latitude": 49.0517789,
    "longitude": -122.3154611
  },
  {
    "name": "Tonsauna",
    "city": "Acton Vale",
    "citySlug": "acton-vale",
    "province": "Quebec",
    "provinceSlug": "quebec",
    "country": "Canada",
    "street": "Porte 3, 250 QC-139 Local 5",
    "phone": "+1 819-314-5586",
    "latitude": 45.6218409,
    "longitude": -72.5547528
  },
  {
    "name": "Great Canadian Saunas",
    "city": "Alexandria",
    "citySlug": "alexandria",
    "province": "Ontario",
    "provinceSlug": "ontario",
    "country": "Canada",
    "street": "139 Kenyon St W",
    "phone": "+1 613-330-4961",
    "latitude": 45.3092491,
    "longitude": -74.6414313
  },
  {
    "name": "Cedar Heaven",
    "city": "Alexandria",
    "citySlug": "alexandria",
    "province": "Ontario",
    "provinceSlug": "ontario",
    "country": "Canada",
    "street": "20657 Glen Robertson Rd",
    "phone": "+1 873-353-6565",
    "latitude": 45.3155049,
    "longitude": -74.6083282,
    "rating": 4.1
  },
  {
    "name": "WowSauna - Saunas For Sale",
    "city": "Alliston",
    "citySlug": "alliston",
    "province": "Ontario",
    "provinceSlug": "ontario",
    "country": "Canada",
    "street": "560 Victoria St E",
    "phone": "+1 833-322-3868",
    "latitude": 44.1604022,
    "longitude": -79.840216,
    "rating": 5
  },
  {
    "name": "Private Russian Banya.",
    "city": "Amherst",
    "citySlug": "amherst",
    "province": "Quebec",
    "provinceSlug": "quebec",
    "country": "Canada",
    "street": "1856 Chem. des Rapides",
    "phone": "+1 416-893-1631",
    "latitude": 45.968273,
    "longitude": -74.7875619,
    "rating": 5
  },
  {
    "name": "MOVATI Athletic Amherstburg",
    "city": "Amherstburg",
    "citySlug": "amherstburg",
    "province": "Ontario",
    "provinceSlug": "ontario",
    "country": "Canada",
    "street": "400 Sandwich St S",
    "phone": "+1 519-736-8761",
    "latitude": 42.0962613,
    "longitude": -83.1109321,
    "rating": 4.1
  },
  {
    "name": "Cedarcraft Sauna Co.",
    "city": "Amherstview",
    "citySlug": "amherstview",
    "province": "Ontario",
    "provinceSlug": "ontario",
    "country": "Canada",
    "street": "4631 Bath Rd",
    "phone": "+1 613-893-6118",
    "latitude": 44.2148162,
    "longitude": -76.6636426,
    "rating": 5
  },
  {
    "name": "Wellness Shop at Jacuzzi Hamilton",
    "city": "Ancaster",
    "citySlug": "ancaster",
    "province": "Ontario",
    "provinceSlug": "ontario",
    "country": "Canada",
    "street": "1015 Golf Links Rd Unit #11",
    "phone": "+1 905-318-9823",
    "latitude": 43.228187,
    "longitude": -79.939632,
    "rating": 4.5
  },
  {
    "name": "Golden Estate Sauna",
    "city": "Atwood",
    "citySlug": "atwood",
    "province": "Ontario",
    "provinceSlug": "ontario",
    "country": "Canada",
    "street": "113 Blair St",
    "phone": "+1 226-622-6005",
    "latitude": 43.6678886,
    "longitude": -81.0182422,
    "rating": 5
  },
  {
    "name": "INFRARED SAUNA",
    "city": "Banff",
    "citySlug": "banff",
    "province": "Alberta",
    "provinceSlug": "alberta",
    "country": "Canada",
    "street": "220 Bear St",
    "phone": "+1 403-985-2200",
    "latitude": 51.1778342,
    "longitude": -115.5718897
  },
  {
    "name": "Cedar + Sage Spa",
    "city": "Banff",
    "citySlug": "banff",
    "province": "Alberta",
    "provinceSlug": "alberta",
    "country": "Canada",
    "street": "220 Bear St",
    "phone": "+1 403-985-2200",
    "latitude": 51.1778403,
    "longitude": -115.5719231,
    "rating": 4.7
  },
  {
    "name": "Bsaunas Inc.",
    "city": "Barrie",
    "citySlug": "barrie",
    "province": "Ontario",
    "provinceSlug": "ontario",
    "country": "Canada",
    "street": "25 Morrow Rd unit 401",
    "phone": "+1 705-727-0404",
    "latitude": 44.3603577,
    "longitude": -79.6997913,
    "rating": 4.9
  },
  {
    "name": "ZAPARA Sauna Sale & Rental",
    "city": "Barrie",
    "citySlug": "barrie",
    "province": "Ontario",
    "provinceSlug": "ontario",
    "country": "Canada",
    "street": "260 Bayview Dr",
    "phone": "+1 647-926-7267",
    "latitude": 44.3554573,
    "longitude": -79.6822653,
    "rating": 5
  },
  {
    "name": "The Gas Sauna Company",
    "city": "Barrie",
    "citySlug": "barrie",
    "province": "Ontario",
    "provinceSlug": "ontario",
    "country": "Canada",
    "street": "85 Brock St Unit 2",
    "phone": "+1 888-651-4838",
    "latitude": 44.3753422,
    "longitude": -79.6971286,
    "rating": 5
  },
  {
    "name": "Wellness Shop at Jacuzzi Barrie",
    "city": "Barrie",
    "citySlug": "barrie",
    "province": "Ontario",
    "provinceSlug": "ontario",
    "country": "Canada",
    "street": "508 Bryne Dr",
    "phone": "+1 705-722-9220",
    "latitude": 44.331574,
    "longitude": -79.689538,
    "rating": 4.3
  },
  {
    "name": "Sunset Tan & Spa",
    "city": "Barrie",
    "citySlug": "barrie",
    "province": "Ontario",
    "provinceSlug": "ontario",
    "country": "Canada",
    "street": "555 Essa Rd",
    "phone": "+1 705-792-1979",
    "latitude": 44.338657,
    "longitude": -79.7108174,
    "rating": 4.7
  },
  {
    "name": "Klub 20 West Island Gym",
    "city": "Beaconsfield",
    "citySlug": "beaconsfield",
    "province": "Quebec",
    "provinceSlug": "quebec",
    "country": "Canada",
    "street": "50 Saint-Charles Blvd",
    "phone": "+1 888-514-3151",
    "latitude": 45.4324971,
    "longitude": -73.847952,
    "rating": 4.5
  },
  {
    "name": "Aqua Parc MSA - Spa, Massothérapie et Sauna à Beaupré",
    "city": "Beaupré",
    "citySlug": "beaupr",
    "province": "Quebec",
    "provinceSlug": "quebec",
    "country": "Canada",
    "street": "400 Rue Dupont",
    "phone": "+1 418-827-8347",
    "latitude": 47.0554217,
    "longitude": -70.8953661,
    "rating": 4
  },
  {
    "name": "Island Sauna Ltd.",
    "city": "Black Creek",
    "citySlug": "black-creek",
    "province": "British Columbia",
    "provinceSlug": "british-columbia",
    "country": "Canada",
    "street": "7957 N Island Hwy",
    "phone": "+1 250-218-2392",
    "latitude": 49.8188679,
    "longitude": -125.1214682,
    "rating": 4.8
  },
  {
    "name": "Sip Saunas",
    "city": "Bloomfield",
    "citySlug": "bloomfield",
    "province": "Ontario",
    "provinceSlug": "ontario",
    "country": "Canada",
    "street": "15845 Loyalist Pkwy",
    "phone": "+1 613-403-8110",
    "latitude": 43.9598082,
    "longitude": -77.3095048,
    "rating": 5
  },
  {
    "name": "YVON CÉRÉ SAUNA+",
    "city": "Bois-Franc",
    "citySlug": "bois-franc",
    "province": "Quebec",
    "provinceSlug": "quebec",
    "country": "Canada",
    "street": "780 Quebec Rte 105",
    "phone": "+1 819-334-1373",
    "latitude": 46.5771659,
    "longitude": -75.9388932,
    "rating": 5
  },
  {
    "name": "Virage vert biotechnologie",
    "city": "Boisbriand",
    "citySlug": "boisbriand",
    "province": "Quebec",
    "provinceSlug": "quebec",
    "country": "Canada",
    "street": "95 Av. Provencher",
    "phone": "+1 450-806-3088",
    "latitude": 45.6217722,
    "longitude": -73.8233641
  },
  {
    "name": "Complete Saunas and Steam",
    "city": "Bolton",
    "citySlug": "bolton",
    "province": "Ontario",
    "provinceSlug": "ontario",
    "country": "Canada",
    "street": "575 Piercey Rd",
    "phone": "+1 416-258-1893",
    "latitude": 43.8645949,
    "longitude": -79.7271015,
    "rating": 5
  },
  {
    "name": "Saunacore Heater & Steamer Manufacturer",
    "city": "Bolton",
    "citySlug": "bolton",
    "province": "Ontario",
    "provinceSlug": "ontario",
    "country": "Canada",
    "street": "8841A George Bolton Pkwy Unit 1",
    "phone": "+1 800-361-9485",
    "latitude": 43.8550849,
    "longitude": -79.7090492,
    "rating": 4.6
  },
  {
    "name": "Northern Saunas",
    "city": "Boucherville",
    "citySlug": "boucherville",
    "province": "Quebec",
    "provinceSlug": "quebec",
    "country": "Canada",
    "street": "1275 Rue Gay-Lussac #103",
    "phone": "+1 844-240-9233",
    "latitude": 45.5725586,
    "longitude": -73.4334534,
    "rating": 4.7
  },
  {
    "name": "Wellness Path Clinic & Spa",
    "city": "Bowmanville",
    "citySlug": "bowmanville",
    "province": "Ontario",
    "provinceSlug": "ontario",
    "country": "Canada",
    "street": "103 King St E",
    "phone": "+1 905-623-9232",
    "latitude": 43.9111915,
    "longitude": -78.6858717,
    "rating": 4.4
  },
  {
    "name": "The Finnish Sauna",
    "city": "Brackendale",
    "citySlug": "brackendale",
    "province": "British Columbia",
    "provinceSlug": "british-columbia",
    "country": "Canada",
    "street": "60001 Squamish Valley Rd",
    "latitude": 49.7959378,
    "longitude": -123.1653238,
    "rating": 4.8
  },
  {
    "name": "InSauna Brackendale",
    "city": "Brackendale",
    "citySlug": "brackendale",
    "province": "British Columbia",
    "provinceSlug": "british-columbia",
    "country": "Canada",
    "street": "41510 Government Rd",
    "phone": "+1 604-848-4193",
    "latitude": 49.7609138,
    "longitude": -123.143969,
    "rating": 5
  },
  {
    "name": "Bliss Home Leisure - Pools, Hot Tubs, Saunas & BBQs",
    "city": "Bradford",
    "citySlug": "bradford",
    "province": "Ontario",
    "provinceSlug": "ontario",
    "country": "Canada",
    "street": "136 Holland St E #5",
    "phone": "+1 905-551-7665",
    "latitude": 44.115149,
    "longitude": -79.5598522,
    "rating": 4.3
  },
  {
    "name": "Bronzeado Tanning Salon",
    "city": "Bradford West Gwillimbury",
    "citySlug": "bradford-west-gwillimbury",
    "province": "Ontario",
    "provinceSlug": "ontario",
    "country": "Canada",
    "street": "450 Holland St W",
    "phone": "+1 905-551-2409",
    "latitude": 44.1083986,
    "longitude": -79.5853164,
    "rating": 5
  },
  {
    "name": "Supreme Sauna",
    "city": "Brampton",
    "citySlug": "brampton",
    "province": "Ontario",
    "provinceSlug": "ontario",
    "country": "Canada",
    "street": "27 Goodview Dr",
    "phone": "+1 647-821-0333",
    "latitude": 43.7624138,
    "longitude": -79.7769614
  },
  {
    "name": "Ming&Ding Chinese Food Catering",
    "city": "Brampton",
    "citySlug": "brampton",
    "province": "Ontario",
    "provinceSlug": "ontario",
    "country": "Canada",
    "street": "260 Elbern Markell Dr",
    "phone": "+1 905-451-2222",
    "latitude": 43.6645407,
    "longitude": -79.8158404
  },
  {
    "name": "Peak Performance",
    "city": "Brandon",
    "citySlug": "brandon",
    "province": "Manitoba",
    "provinceSlug": "manitoba",
    "country": "Canada",
    "street": "863 10th St",
    "phone": "+1 204-727-7016",
    "latitude": 49.836167,
    "longitude": -99.950968,
    "rating": 4.7
  },
  {
    "name": "Livingstone Outdoor",
    "city": "Brandon",
    "citySlug": "brandon",
    "province": "Manitoba",
    "provinceSlug": "manitoba",
    "country": "Canada",
    "street": "1610 Byng Ave",
    "phone": "+1 204-578-5131",
    "latitude": 49.8512174,
    "longitude": -99.9599322,
    "rating": 4.7
  },
  {
    "name": "MOVATI Athletic Brantford",
    "city": "Brantford",
    "citySlug": "brantford",
    "province": "Ontario",
    "provinceSlug": "ontario",
    "country": "Canada",
    "street": "595 West St",
    "phone": "+1 519-756-0123",
    "latitude": 43.1690297,
    "longitude": -80.2460794,
    "rating": 3.7
  },
  {
    "name": "Serenity Tanning & Wellness",
    "city": "Brockville",
    "citySlug": "brockville",
    "province": "Ontario",
    "provinceSlug": "ontario",
    "country": "Canada",
    "street": "163 Ormond St",
    "phone": "+1 613-498-1740",
    "latitude": 44.5986729,
    "longitude": -75.6837595,
    "rating": 4.9
  },
  {
    "name": "Sauna Boréal",
    "city": "Brossard",
    "citySlug": "brossard",
    "province": "Quebec",
    "provinceSlug": "quebec",
    "country": "Canada",
    "street": "5325 Grande Allée",
    "phone": "+1 450-904-2460",
    "latitude": 45.4788853,
    "longitude": -73.4498681,
    "rating": 5
  },
  {
    "name": "Relax Sauna Burlington",
    "city": "Burlington",
    "citySlug": "burlington",
    "province": "Ontario",
    "provinceSlug": "ontario",
    "country": "Canada",
    "street": "1066 Brant St",
    "phone": "+1 905-906-1048",
    "latitude": 43.3397011,
    "longitude": -79.8198247
  },
  {
    "name": "Wellness Shop at Jacuzzi Burlington",
    "city": "Burlington",
    "citySlug": "burlington",
    "province": "Ontario",
    "provinceSlug": "ontario",
    "country": "Canada",
    "street": "3073 N Service Rd",
    "phone": "+1 905-635-0670",
    "latitude": 43.354357,
    "longitude": -79.802194,
    "rating": 4.7
  },
  {
    "name": "MOVATI Athletic Burlington",
    "city": "Burlington",
    "citySlug": "burlington",
    "province": "Ontario",
    "provinceSlug": "ontario",
    "country": "Canada",
    "street": "2036 Appleby Line",
    "phone": "+1 289-427-0223",
    "latitude": 43.3947395,
    "longitude": -79.7948476,
    "rating": 4.1
  },
  {
    "name": "Backyards and Beyond",
    "city": "Burlington",
    "citySlug": "burlington",
    "province": "Ontario",
    "provinceSlug": "ontario",
    "country": "Canada",
    "street": "4057 Fairview St #2",
    "phone": "+1 905-769-8585",
    "latitude": 43.362063,
    "longitude": -79.777879,
    "rating": 4.6
  },
  {
    "name": "Burlington Natural Health Centre",
    "city": "Burlington",
    "citySlug": "burlington",
    "province": "Ontario",
    "provinceSlug": "ontario",
    "country": "Canada",
    "street": "1066 Brant St",
    "phone": "+1 905-634-8598",
    "latitude": 43.3397514,
    "longitude": -79.8196958,
    "rating": 4.8
  },
  {
    "name": "BigRedWorks Inc.",
    "city": "Burlington",
    "citySlug": "burlington",
    "province": "Ontario",
    "provinceSlug": "ontario",
    "country": "Canada",
    "street": "829 Brant St",
    "phone": "+1 705-756-1333",
    "latitude": 43.3348589,
    "longitude": -79.8106993
  },
  {
    "name": "Bodhi Bar",
    "city": "Burlington",
    "citySlug": "burlington",
    "province": "Ontario",
    "provinceSlug": "ontario",
    "country": "Canada",
    "street": "2027 Lakeshore Rd.",
    "phone": "+1 289-237-7777",
    "latitude": 43.3249769,
    "longitude": -79.7950889,
    "rating": 4.7
  },
  {
    "name": "Art of Sauna (Massage & Wellness Spa)",
    "city": "Burnaby",
    "citySlug": "burnaby",
    "province": "British Columbia",
    "provinceSlug": "british-columbia",
    "country": "Canada",
    "street": "7818 6th St",
    "phone": "+1 604-484-7944",
    "latitude": 49.220316,
    "longitude": -122.9290526,
    "rating": 4.4
  },
  {
    "name": "Imperial Retreat Head Massage & Body Wellness & Facial",
    "city": "CA",
    "citySlug": "ca",
    "province": "Ontario",
    "provinceSlug": "ontario",
    "country": "Canada",
    "street": "in Centennial Park Plaza, 5555 Eglinton Ave W 2nd Floor Suite 216-219",
    "phone": "+1 647-800-0600",
    "latitude": 43.6487507,
    "longitude": -79.6047459,
    "rating": 4.9
  },
  {
    "name": "Parkview Athletics Ltd.",
    "city": "CA",
    "citySlug": "ca",
    "province": "Ontario",
    "provinceSlug": "ontario",
    "country": "Canada",
    "street": "25 Hollinger Rd",
    "phone": "+1 647-407-1393",
    "latitude": 43.7108451,
    "longitude": -79.315317,
    "rating": 5
  },
  {
    "name": "National Gym & Fitness Centre",
    "city": "CA",
    "citySlug": "ca",
    "province": "Ontario",
    "provinceSlug": "ontario",
    "country": "Canada",
    "street": "220 Humberline Dr #12b",
    "phone": "+1 416-679-0990",
    "latitude": 43.7352782,
    "longitude": -79.618494,
    "rating": 3.8
  },
  {
    "name": "The Home of UBUNTU and Wellness",
    "city": "CA",
    "citySlug": "ca",
    "province": "Ontario",
    "provinceSlug": "ontario",
    "country": "Canada",
    "street": "2560 Gerrard St E",
    "phone": "+1 647-295-2176",
    "latitude": 43.6890059,
    "longitude": -79.2784897,
    "rating": 5
  },
  {
    "name": "Zenith Massage & Wellness",
    "city": "Caledon",
    "citySlug": "caledon",
    "province": "Ontario",
    "provinceSlug": "ontario",
    "country": "Canada",
    "street": "100 Larson Peak Rd",
    "latitude": 43.7565612,
    "longitude": -79.8203811,
    "rating": 4.9
  },
  {
    "name": "Oak Leaf Sauna Club Calgary",
    "city": "Calgary",
    "citySlug": "calgary",
    "province": "Alberta",
    "provinceSlug": "alberta",
    "country": "Canada",
    "street": "1603 62 Ave SE #3",
    "phone": "+1 403-452-4095",
    "latitude": 50.9974592,
    "longitude": -114.02031,
    "rating": 4.9
  },
  {
    "name": "Offline Wellness Club",
    "city": "Calgary",
    "citySlug": "calgary",
    "province": "Alberta",
    "provinceSlug": "alberta",
    "country": "Canada",
    "street": "1214 11 Ave SW",
    "latitude": 51.0433657,
    "longitude": -114.089549
  },
  {
    "name": "Silver Birch Sauna",
    "city": "Calgary",
    "citySlug": "calgary",
    "province": "Alberta",
    "provinceSlug": "alberta",
    "country": "Canada",
    "street": "103-950 Queensland Dr SE",
    "phone": "+1 403-400-4087",
    "latitude": 50.9327019,
    "longitude": -114.0171166,
    "rating": 5
  },
  {
    "name": "Beauty Saunas and Baths",
    "city": "Calgary",
    "citySlug": "calgary",
    "province": "Alberta",
    "provinceSlug": "alberta",
    "country": "Canada",
    "street": "4510 14 St NE",
    "phone": "+1 403-453-0086",
    "latitude": 51.0926766,
    "longitude": -114.0279608,
    "rating": 3.8
  },
  {
    "name": "Goliath's Saunatel (Bath House)",
    "city": "Calgary",
    "citySlug": "calgary",
    "province": "Alberta",
    "provinceSlug": "alberta",
    "country": "Canada",
    "street": "Entrance in parking lot behind model milk Stairs down under Texas Lounge Sign, 308b 17 Ave SW",
    "phone": "+1 403-229-0911",
    "latitude": 51.038068,
    "longitude": -114.0691306,
    "rating": 3.8
  },
  {
    "name": "tile installer",
    "city": "Calgary",
    "citySlug": "calgary",
    "province": "Alberta",
    "provinceSlug": "alberta",
    "country": "Canada",
    "street": "120 Yorkville Park SW",
    "phone": "+1 825-994-9845",
    "latitude": 50.8711396,
    "longitude": -114.073179,
    "rating": 5
  },
  {
    "name": "Bramari Saunas - Supply and Installation. Interior saunas and outdoor saunas",
    "city": "Calgary",
    "citySlug": "calgary",
    "province": "Alberta",
    "provinceSlug": "alberta",
    "country": "Canada",
    "street": "Next door to the Cedar Shop, 285 Manitou Rd SE #100",
    "phone": "+1 403-369-4001",
    "latitude": 51.0136299,
    "longitude": -114.0590908,
    "rating": 4.7
  },
  {
    "name": "Hot Wood Sauna",
    "city": "Calgary",
    "citySlug": "calgary",
    "province": "Alberta",
    "provinceSlug": "alberta",
    "country": "Canada",
    "street": "136 Walcrest View SE",
    "phone": "+1 647-673-7610",
    "latitude": 50.8657811,
    "longitude": -114.008168,
    "rating": 5
  },
  {
    "name": "Aquarius Spa",
    "city": "Calgary",
    "citySlug": "calgary",
    "province": "Alberta",
    "provinceSlug": "alberta",
    "country": "Canada",
    "street": "#11255 30 St SW",
    "phone": "+1 403-681-9617",
    "latitude": 50.9532228,
    "longitude": -114.1299435,
    "rating": 5
  },
  {
    "name": "SaunaBuilder - Custom Indoor and Outdoor Saunas for Homes and Businesses",
    "city": "Calgary",
    "citySlug": "calgary",
    "province": "Alberta",
    "provinceSlug": "alberta",
    "country": "Canada",
    "street": "4429 6 St NE #5",
    "phone": "+1 403-926-8444",
    "latitude": 51.0920938,
    "longitude": -114.0486878,
    "rating": 4.8
  },
  {
    "name": "Rejuve Health & Wellness",
    "city": "Calgary",
    "citySlug": "calgary",
    "province": "Alberta",
    "provinceSlug": "alberta",
    "country": "Canada",
    "street": "320 10 St NW #201",
    "latitude": 51.054884,
    "longitude": -114.0857518,
    "rating": 4.8
  },
  {
    "name": "Inner Balance Spa",
    "city": "Calgary",
    "citySlug": "calgary",
    "province": "Alberta",
    "provinceSlug": "alberta",
    "country": "Canada",
    "street": "424 10 St NW #101",
    "phone": "+1 403-670-6721",
    "latitude": 51.056395,
    "longitude": -114.085682,
    "rating": 4.6
  },
  {
    "name": "clear float spa",
    "city": "Calgary",
    "citySlug": "calgary",
    "province": "Alberta",
    "provinceSlug": "alberta",
    "country": "Canada",
    "street": "335 18 Ave SW Unit #105",
    "phone": "+1 403-454-4502",
    "latitude": 51.0370955,
    "longitude": -114.0708734,
    "rating": 4.8
  },
  {
    "name": "Texas Lounge",
    "city": "Calgary",
    "citySlug": "calgary",
    "province": "AB",
    "provinceSlug": "ab",
    "country": "Canada",
    "street": "Entrance in Parking lot behind Model Milk, 308b 17 Ave SW",
    "phone": "+1 403-229-0911",
    "latitude": 51.0381713,
    "longitude": -114.0692494,
    "rating": 3.6
  },
  {
    "name": "BnB Barrels",
    "city": "Calgary",
    "citySlug": "calgary",
    "province": "Alberta",
    "provinceSlug": "alberta",
    "country": "Canada",
    "street": "417 53 Ave SE",
    "phone": "+1 587-316-2762",
    "latitude": 51.0055296,
    "longitude": -114.055531,
    "rating": 5
  },
  {
    "name": "Rocky Mountain Pools and Spas Ltd",
    "city": "Calgary",
    "citySlug": "calgary",
    "province": "Alberta",
    "provinceSlug": "alberta",
    "country": "Canada",
    "street": "500 58 Ave SE",
    "phone": "+1 403-243-6667",
    "latitude": 51.0018736,
    "longitude": -114.0533183,
    "rating": 4.9
  },
  {
    "name": "Era Massage & Beauty",
    "city": "Calgary",
    "citySlug": "calgary",
    "province": "Alberta",
    "provinceSlug": "alberta",
    "country": "Canada",
    "street": "9705 Horton Rd SW b102",
    "phone": "+1 403-281-8411",
    "latitude": 50.9677288,
    "longitude": -114.0756641,
    "rating": 4.5
  },
  {
    "name": "Wellness on 1st",
    "city": "Calgary",
    "citySlug": "calgary",
    "province": "Alberta",
    "provinceSlug": "alberta",
    "country": "Canada",
    "street": "1802 1 St NW Suite 201",
    "phone": "+1 403-764-0244",
    "latitude": 51.0681063,
    "longitude": -114.0647636,
    "rating": 5
  },
  {
    "name": "Bombody",
    "city": "Calgary",
    "citySlug": "calgary",
    "province": "Alberta",
    "provinceSlug": "alberta",
    "country": "Canada",
    "street": "2010 11 St SE",
    "phone": "+1 403-700-3262",
    "latitude": 51.0353933,
    "longitude": -114.0366261,
    "rating": 5
  },
  {
    "name": "KNetic Men",
    "city": "Calgary",
    "citySlug": "calgary",
    "province": "Alberta",
    "provinceSlug": "alberta",
    "country": "Canada",
    "street": "4116 64 Ave SE",
    "phone": "+1 825-910-6969",
    "latitude": 50.9968932,
    "longitude": -113.9761007,
    "rating": 5
  },
  {
    "name": "Paradise Bay",
    "city": "Calgary",
    "citySlug": "calgary",
    "province": "Alberta",
    "provinceSlug": "alberta",
    "country": "Canada",
    "street": "7180 12 St SE",
    "phone": "+1 403-640-4011",
    "latitude": 50.99048,
    "longitude": -114.0366099,
    "rating": 4.5
  },
  {
    "name": "Jacuzzi Hot Tubs of Calgary",
    "city": "Calgary",
    "citySlug": "calgary",
    "province": "Alberta",
    "provinceSlug": "alberta",
    "country": "Canada",
    "street": "6204 Centre Street S",
    "phone": "+1 403-764-6838",
    "latitude": 50.9962558,
    "longitude": -114.0633701,
    "rating": 4.8
  },
  {
    "name": "Balance BodyWorX Natural Spa",
    "city": "Campbell River",
    "citySlug": "campbell-river",
    "province": "British Columbia",
    "provinceSlug": "british-columbia",
    "country": "Canada",
    "street": "964 Shoppers Row #5",
    "phone": "+1 250-202-3330",
    "latitude": 50.02529,
    "longitude": -125.242484,
    "rating": 5
  },
  {
    "name": "R&D Hot Tubs",
    "city": "Camrose",
    "citySlug": "camrose",
    "province": "Alberta",
    "provinceSlug": "alberta",
    "country": "Canada",
    "street": "3843 G 44 Ave",
    "phone": "+1 780-679-4003",
    "latitude": 53.0102093,
    "longitude": -112.8054913,
    "rating": 4.8
  },
  {
    "name": "One Wellness",
    "city": "Canmore",
    "citySlug": "canmore",
    "province": "Alberta",
    "provinceSlug": "alberta",
    "country": "Canada",
    "street": "177 Kananaskis Way",
    "phone": "+1 403-679-7179",
    "latitude": 51.0832714,
    "longitude": -115.3410315,
    "rating": 4.7
  },
  {
    "name": "Hot Rock Spa",
    "city": "Carp",
    "citySlug": "carp",
    "province": "Ontario",
    "provinceSlug": "ontario",
    "country": "Canada",
    "street": "110 Donald B. Munro Dr",
    "phone": "+1 613-908-1229",
    "latitude": 45.3434,
    "longitude": -76.0156498,
    "rating": 4.9
  },
  {
    "name": "Pearl Sauna & Steambath Inc",
    "city": "Charlottetown",
    "citySlug": "charlottetown",
    "province": "Prince Edward Island",
    "provinceSlug": "prince-edward-island",
    "country": "Canada",
    "street": "187 Queen St",
    "phone": "+1 902-208-1888",
    "latitude": 46.2350795,
    "longitude": -63.1292122,
    "rating": 4
  },
  {
    "name": "Mobile Sauna for Rent",
    "city": "Châteauguay",
    "citySlug": "chteauguay",
    "province": "Quebec",
    "provinceSlug": "quebec",
    "country": "Canada",
    "street": "107 Av. Bourdon",
    "phone": "+1 438-929-8330",
    "latitude": 45.3547717,
    "longitude": -73.7646655,
    "rating": 5
  },
  {
    "name": "Floating Therapy",
    "city": "Chatham",
    "citySlug": "chatham",
    "province": "Ontario",
    "provinceSlug": "ontario",
    "country": "Canada",
    "street": "43 Victoria Ave",
    "phone": "+1 519-397-4221",
    "latitude": 42.4092864,
    "longitude": -82.1866793,
    "rating": 4.9
  },
  {
    "name": "Kingburne Valley Nordic Spa",
    "city": "Cobble Hill",
    "citySlug": "cobble-hill",
    "province": "British Columbia",
    "provinceSlug": "british-columbia",
    "country": "Canada",
    "street": "3700 Kingburne Dr",
    "latitude": 48.6949734,
    "longitude": -123.6412127,
    "rating": 5
  },
  {
    "name": "Salt Water Wellness Centre",
    "city": "Cochrane",
    "citySlug": "cochrane",
    "province": "Alberta",
    "provinceSlug": "alberta",
    "country": "Canada",
    "street": "309 1 St E #101",
    "phone": "+1 403-851-3919",
    "latitude": 51.1878341,
    "longitude": -114.4626269,
    "rating": 4.9
  },
  {
    "name": "Dark Barrel Saunas",
    "city": "Cold Lake",
    "citySlug": "cold-lake",
    "province": "Alberta",
    "provinceSlug": "alberta",
    "country": "Canada",
    "street": "Station main",
    "phone": "+1 780-815-1338",
    "latitude": 54.4106859,
    "longitude": -110.2127117,
    "rating": 5
  },
  {
    "name": "Markham Works - Saunas, Cold Plunges Located In Collingwood Ontario Canada",
    "city": "Collingwood",
    "citySlug": "collingwood",
    "province": "Ontario",
    "provinceSlug": "ontario",
    "country": "Canada",
    "street": "38 Courtice Crescent",
    "phone": "+1 705-444-9663",
    "latitude": 44.491613,
    "longitude": -80.230149,
    "rating": 5
  },
  {
    "name": "Moonlight Sauna Collingwood",
    "city": "Collingwood",
    "citySlug": "collingwood",
    "province": "Ontario",
    "provinceSlug": "ontario",
    "country": "Canada",
    "street": "879 Sixth St",
    "phone": "+1 705-444-9663",
    "latitude": 44.4876948,
    "longitude": -80.2537785
  },
  {
    "name": "Old Hickory Buildings Collingwood by Great Canadian Saunas",
    "city": "Collingwood",
    "citySlug": "collingwood",
    "province": "Ontario",
    "provinceSlug": "ontario",
    "country": "Canada",
    "street": "22 High St",
    "phone": "+1 226-821-1430",
    "latitude": 44.4973294,
    "longitude": -80.2339147,
    "rating": 5
  },
  {
    "name": "iSauna.ca",
    "city": "Concord",
    "citySlug": "concord",
    "province": "Ontario",
    "provinceSlug": "ontario",
    "country": "Canada",
    "street": "9131 Keele St",
    "phone": "+1 647-564-2849",
    "latitude": 43.8341133,
    "longitude": -79.5067679,
    "rating": 5
  },
  {
    "name": "Владимирские Бани",
    "city": "Concord",
    "citySlug": "concord",
    "province": "Ontario",
    "provinceSlug": "ontario",
    "country": "Canada",
    "street": "8707 Dufferin St Unit 13",
    "phone": "+1 647-893-5727",
    "latitude": 43.828144,
    "longitude": -79.4790978,
    "rating": 4.5
  },
  {
    "name": "Saunas by DreamSauna",
    "city": "Concord",
    "citySlug": "concord",
    "province": "Ontario",
    "provinceSlug": "ontario",
    "country": "Canada",
    "street": "117 Planchet Rd unit 1",
    "phone": "+1 416-356-5274",
    "latitude": 43.8229539,
    "longitude": -79.4994371,
    "rating": 4.8
  },
  {
    "name": "North Valley Saunas",
    "city": "Concord",
    "citySlug": "concord",
    "province": "Ontario",
    "provinceSlug": "ontario",
    "country": "Canada",
    "street": "107 Connie Crescent",
    "phone": "+1 416-843-7540",
    "latitude": 43.8184506,
    "longitude": -79.4884095
  },
  {
    "name": "Parilka.Inc",
    "city": "Concord",
    "citySlug": "concord",
    "province": "Ontario",
    "provinceSlug": "ontario",
    "country": "Canada",
    "street": "117 Planchet Rd #1",
    "phone": "+1 416-356-5274",
    "latitude": 43.8226744,
    "longitude": -79.5000379,
    "rating": 5
  },
  {
    "name": "Sauna Depot",
    "city": "Cookstown",
    "citySlug": "cookstown",
    "province": "Ontario",
    "provinceSlug": "ontario",
    "country": "Canada",
    "street": "3791 ON-89",
    "phone": "+1 416-455-9955",
    "latitude": 44.1964718,
    "longitude": -79.6714337,
    "rating": 4.9
  },
  {
    "name": "Sauna Central",
    "city": "Cookstown",
    "citySlug": "cookstown",
    "province": "Ontario",
    "provinceSlug": "ontario",
    "country": "Canada",
    "street": "9 Queen St Unit D",
    "phone": "+1 416-700-1001",
    "latitude": 44.189559,
    "longitude": -79.7025183,
    "rating": 4.9
  },
  {
    "name": "MB'S HYDROTHERMAL",
    "city": "Coquitlam",
    "citySlug": "coquitlam",
    "province": "British Columbia",
    "provinceSlug": "british-columbia",
    "country": "Canada",
    "street": "2955 Atlantic Ave #2705",
    "phone": "+1 604-352-2068",
    "latitude": 49.28217,
    "longitude": -122.79825,
    "rating": 5
  },
  {
    "name": "Bridge City Saunas",
    "city": "Corman Park No. 344",
    "citySlug": "corman-park-no-344",
    "province": "Saskatchewan",
    "provinceSlug": "saskatchewan",
    "country": "Canada",
    "street": "509 Edgemont St",
    "latitude": 52.045459,
    "longitude": -106.6536556,
    "rating": 5
  },
  {
    "name": "The Lost Faucet Sauna House",
    "city": "Courtenay",
    "citySlug": "courtenay",
    "province": "British Columbia",
    "provinceSlug": "british-columbia",
    "country": "Canada",
    "street": "3455 Cumberland Rd",
    "phone": "+1 250-918-9155",
    "latitude": 49.6553039,
    "longitude": -125.0099334,
    "rating": 5
  },
  {
    "name": "Northern Leisure Tillsonburg (Appt Required)",
    "city": "Courtland",
    "citySlug": "courtland",
    "province": "Ontario",
    "provinceSlug": "ontario",
    "country": "Canada",
    "street": "16 Adams St",
    "phone": "+1 519-550-4332",
    "latitude": 42.839333,
    "longitude": -80.6352765,
    "rating": 5
  },
  {
    "name": "DLP Structures",
    "city": "Courtland",
    "citySlug": "courtland",
    "province": "Ontario",
    "provinceSlug": "ontario",
    "country": "Canada",
    "street": "34 Norfolk County Rd 13",
    "phone": "+1 519-983-0320",
    "latitude": 42.8457999,
    "longitude": -80.64582,
    "rating": 5
  },
  {
    "name": "Coastal Sauna Company",
    "city": "Dartmouth",
    "citySlug": "dartmouth",
    "province": "Nova Scotia",
    "provinceSlug": "nova-scotia",
    "country": "Canada",
    "street": "740 Waverley Rd",
    "phone": "+1 902-220-9464",
    "latitude": 44.725649,
    "longitude": -63.5414221,
    "rating": 5
  },
  {
    "name": "Hush Nordic Sauna",
    "city": "Drayton Valley",
    "citySlug": "drayton-valley",
    "province": "Alberta",
    "provinceSlug": "alberta",
    "country": "Canada",
    "street": "7101 Township Rd 495",
    "latitude": 53.2642712,
    "longitude": -114.9054704,
    "rating": 5
  },
  {
    "name": "Cowitan",
    "city": "Duncan",
    "citySlug": "duncan",
    "province": "British Columbia",
    "provinceSlug": "british-columbia",
    "country": "Canada",
    "street": "187 Kenneth St #1",
    "phone": "+1 250-748-0191",
    "latitude": 48.7787151,
    "longitude": -123.7100537,
    "rating": 5
  },
  {
    "name": "Cedar Lodge Spa & Bar Complex - Restaurant, Spa, Space for Rent, Sauna in Hamilton, Turkish Hamam, Pool and Hot Tub",
    "city": "Dundas",
    "citySlug": "dundas",
    "province": "Ontario",
    "provinceSlug": "ontario",
    "country": "Canada",
    "street": "1 East Street N",
    "phone": "+1 289-260-9775",
    "latitude": 43.2665019,
    "longitude": -79.9445056,
    "rating": 4.7
  },
  {
    "name": "Radiance Room",
    "city": "Dunnville",
    "citySlug": "dunnville",
    "province": "Ontario",
    "provinceSlug": "ontario",
    "country": "Canada",
    "street": "119 Lock St E",
    "phone": "+1 639-998-6415",
    "latitude": 42.9026199,
    "longitude": -79.6184581
  },
  {
    "name": "Hot Stones Spa",
    "city": "Edmonton",
    "citySlug": "edmonton",
    "province": "Alberta",
    "provinceSlug": "alberta",
    "country": "Canada",
    "street": "13075 156 St NW",
    "phone": "+1 587-703-3710",
    "latitude": 53.5894576,
    "longitude": -113.5883869,
    "rating": 4.8
  },
  {
    "name": "Relax Saunas Canada",
    "city": "Edmonton",
    "citySlug": "edmonton",
    "province": "Alberta",
    "provinceSlug": "alberta",
    "country": "Canada",
    "street": "3908 97 St NW",
    "phone": "+1 780-432-2086",
    "latitude": 53.4746184,
    "longitude": -113.4801791
  },
  {
    "name": "Hot Wheelz Mobile Sauna",
    "city": "Edmonton",
    "citySlug": "edmonton",
    "province": "Alberta",
    "provinceSlug": "alberta",
    "country": "Canada",
    "street": "734 Balfour Close NW",
    "phone": "+1 647-217-5811",
    "latitude": 53.5147185,
    "longitude": -113.6857491,
    "rating": 5
  },
  {
    "name": "Bliss Mobile Sauna",
    "city": "Edmonton",
    "citySlug": "edmonton",
    "province": "Alberta",
    "provinceSlug": "alberta",
    "country": "Canada",
    "street": "7807 127 Ave NW Suite 390",
    "phone": "+1 780-282-5477",
    "latitude": 53.5842864,
    "longitude": -113.4605727,
    "rating": 5
  },
  {
    "name": "Blackstone Saunas Edmonton",
    "city": "Edmonton",
    "citySlug": "edmonton",
    "province": "Alberta",
    "provinceSlug": "alberta",
    "country": "Canada",
    "street": "8944 182 St NW #325",
    "phone": "+1 780-392-1985",
    "latitude": 53.5246538,
    "longitude": -113.6391087,
    "rating": 4.5
  },
  {
    "name": "Thermaculture",
    "city": "Edmonton",
    "citySlug": "edmonton",
    "province": "Alberta",
    "provinceSlug": "alberta",
    "country": "Canada",
    "street": "10207 88 St NW",
    "phone": "+1 306-713-0954",
    "latitude": 53.5470979,
    "longitude": -113.4683589,
    "rating": 5
  },
  {
    "name": "Cedar Cask Saunas",
    "city": "Edmonton",
    "citySlug": "edmonton",
    "province": "Alberta",
    "provinceSlug": "alberta",
    "country": "Canada",
    "street": "14373 92a Ave NW",
    "phone": "+1 780-908-7109",
    "latitude": 53.5272654,
    "longitude": -113.5713317,
    "rating": 5
  },
  {
    "name": "Synergy Sauna & SPA",
    "city": "Edmonton",
    "citySlug": "edmonton",
    "province": "Alberta",
    "provinceSlug": "alberta",
    "country": "Canada",
    "street": "10940 166a St NW",
    "phone": "+1 780-665-3735",
    "latitude": 53.5571949,
    "longitude": -113.6081676,
    "rating": 4.7
  },
  {
    "name": "Relevo Saunas",
    "city": "Edmonton",
    "citySlug": "edmonton",
    "province": "Alberta",
    "provinceSlug": "alberta",
    "country": "Canada",
    "street": "22908 112 Ave NW",
    "phone": "+1 780-305-4998",
    "latitude": 53.56035,
    "longitude": -113.7112931,
    "rating": 5
  },
  {
    "name": "Extravacat's Pools & Saunas",
    "city": "Edmonton",
    "citySlug": "edmonton",
    "province": "Alberta",
    "provinceSlug": "alberta",
    "country": "Canada",
    "street": "11757 156 St NW",
    "phone": "+1 587-574-2800",
    "latitude": 53.5689027,
    "longitude": -113.5889425,
    "rating": 5
  },
  {
    "name": "The Spa Spot",
    "city": "Edmonton",
    "citySlug": "edmonton",
    "province": "Alberta",
    "provinceSlug": "alberta",
    "country": "Canada",
    "street": "5718 Gateway Blvd NW",
    "phone": "+1 780-438-3226",
    "latitude": 53.4945807,
    "longitude": -113.4925792,
    "rating": 4.8
  },
  {
    "name": "Sundance Spas of Edmonton",
    "city": "Edmonton",
    "citySlug": "edmonton",
    "province": "Alberta",
    "provinceSlug": "alberta",
    "country": "Canada",
    "street": "11279 170 St NW",
    "phone": "+1 780-451-5542",
    "latitude": 53.5609415,
    "longitude": -113.6139037,
    "rating": 4.4
  },
  {
    "name": "Wellness On Whyte",
    "city": "Edmonton",
    "citySlug": "edmonton",
    "province": "Alberta",
    "provinceSlug": "alberta",
    "country": "Canada",
    "street": "8135 102 St NW #303",
    "phone": "+1 780-437-9355",
    "latitude": 53.5179042,
    "longitude": -113.493654,
    "rating": 4.8
  },
  {
    "name": "Healing Waters Spa Edmonton",
    "city": "Edmonton",
    "citySlug": "edmonton",
    "province": "Alberta",
    "provinceSlug": "alberta",
    "country": "Canada",
    "street": "6603 99 St NW #200",
    "phone": "+1 780-988-7873",
    "latitude": 53.5032251,
    "longitude": -113.4857048,
    "rating": 4.8
  },
  {
    "name": "MOVATI Athletic Manning",
    "city": "Edmonton",
    "citySlug": "edmonton",
    "province": "Alberta",
    "provinceSlug": "alberta",
    "country": "Canada",
    "street": "15812 34 St NW",
    "phone": "+1 780-652-1036",
    "latitude": 53.620209,
    "longitude": -113.394082,
    "rating": 4
  },
  {
    "name": "SML Hot Tubs & Home Leisure",
    "city": "Edmonton",
    "citySlug": "edmonton",
    "province": "Alberta",
    "provinceSlug": "alberta",
    "country": "Canada",
    "street": "4142 99 St NW",
    "phone": "+1 780-428-2302",
    "latitude": 53.4781503,
    "longitude": -113.4872741,
    "rating": 4.8
  },
  {
    "name": "MOVATI Athletic Windermere",
    "city": "Edmonton",
    "citySlug": "edmonton",
    "province": "Alberta",
    "provinceSlug": "alberta",
    "country": "Canada",
    "street": "17020 Hiller Rd SW",
    "phone": "+1 780-652-1034",
    "latitude": 53.4223694,
    "longitude": -113.6181128,
    "rating": 3.9
  },
  {
    "name": "Boreal Sauna Company",
    "city": "Elk Ridge",
    "citySlug": "elk-ridge",
    "province": "Saskatchewan",
    "provinceSlug": "saskatchewan",
    "country": "Canada",
    "street": "Eagle View Way",
    "phone": "+1 306-737-8046",
    "latitude": 53.897088,
    "longitude": -105.9919222,
    "rating": 5
  },
  {
    "name": "The Fall River Outlet",
    "city": "Fall River",
    "citySlug": "fall-river",
    "province": "Nova Scotia",
    "provinceSlug": "nova-scotia",
    "country": "Canada",
    "street": "5 Cummings Dr",
    "phone": "+1 902-488-4247",
    "latitude": 44.8045347,
    "longitude": -63.6254841
  },
  {
    "name": "Pelican Guesthous",
    "city": "Fort Erie",
    "citySlug": "fort-erie",
    "province": "Ontario",
    "provinceSlug": "ontario",
    "country": "Canada",
    "street": "121 Albert St",
    "latitude": 42.8906719,
    "longitude": -78.9305047,
    "rating": 4.5
  },
  {
    "name": "Hot Tub Outlet",
    "city": "Fort Erie",
    "citySlug": "fort-erie",
    "province": "Ontario",
    "provinceSlug": "ontario",
    "country": "Canada",
    "street": "116 Jarvis St",
    "phone": "+1 905-991-4190",
    "latitude": 42.9299172,
    "longitude": -78.9185022,
    "rating": 4.6
  },
  {
    "name": "Pro Company",
    "city": "Fredericton",
    "citySlug": "fredericton",
    "province": "New Brunswick",
    "provinceSlug": "new-brunswick",
    "country": "Canada",
    "street": "1255 Lincoln Rd",
    "phone": "+1 506-479-0010",
    "latitude": 45.9189325,
    "longitude": -66.5944163,
    "rating": 5
  },
  {
    "name": "Signature Mélisa Parenteau Spa Urbain",
    "city": "Gatineau",
    "citySlug": "gatineau",
    "province": "Quebec",
    "provinceSlug": "quebec",
    "country": "Canada",
    "street": "746 Ave. de Buckingham unité 2",
    "phone": "+1 819-281-1119",
    "latitude": 45.5788875,
    "longitude": -75.4121548,
    "rating": 4.7
  },
  {
    "name": "Hotel V",
    "city": "Gatineau",
    "citySlug": "gatineau",
    "province": "Quebec",
    "provinceSlug": "quebec",
    "country": "Canada",
    "street": "585 Bd de la Gappe",
    "phone": "+1 819-243-8586",
    "latitude": 45.4807078,
    "longitude": -75.693945,
    "rating": 4
  },
  {
    "name": "Cedar Co. Sauna",
    "city": "Grand Bend",
    "citySlug": "grand-bend",
    "province": "Ontario",
    "provinceSlug": "ontario",
    "country": "Canada",
    "street": "79 River Rd",
    "phone": "+1 519-859-4024",
    "latitude": 43.3128946,
    "longitude": -81.7644957
  },
  {
    "name": "Purity Salt Cave & Healing Spa",
    "city": "Grand Bend",
    "citySlug": "grand-bend",
    "province": "Ontario",
    "provinceSlug": "ontario",
    "country": "Canada",
    "street": "45 Ontario St N",
    "phone": "+1 519-238-7258",
    "latitude": 43.3148675,
    "longitude": -81.7549663,
    "rating": 4.9
  },
  {
    "name": "Coast health and wellness",
    "city": "Grand Manan",
    "citySlug": "grand-manan",
    "province": "New Brunswick",
    "provinceSlug": "new-brunswick",
    "country": "Canada",
    "street": "1191 NB-776",
    "latitude": 44.6854197,
    "longitude": -66.7709937,
    "rating": 5
  },
  {
    "name": "The Spa Spot",
    "city": "Grande Prairie",
    "citySlug": "grande-prairie",
    "province": "Alberta",
    "provinceSlug": "alberta",
    "country": "Canada",
    "street": "10020 110 Ave #101",
    "phone": "+1 780-532-2827",
    "latitude": 55.1799651,
    "longitude": -118.7971345,
    "rating": 4.9
  },
  {
    "name": "Floathaus",
    "city": "Gravenhurst",
    "citySlug": "gravenhurst",
    "province": "Ontario",
    "provinceSlug": "ontario",
    "country": "Canada",
    "street": "125 Steamship Bay Rd",
    "latitude": 44.9189808,
    "longitude": -79.3882877,
    "rating": 5
  },
  {
    "name": "Nordic Energy Systems Ltd",
    "city": "Greater Sudbury",
    "citySlug": "greater-sudbury",
    "province": "Ontario",
    "provinceSlug": "ontario",
    "country": "Canada",
    "street": "2324 Long Lake Rd",
    "phone": "+1 705-522-9403",
    "latitude": 46.4441415,
    "longitude": -81.0053659,
    "rating": 4.6
  },
  {
    "name": "MOVATI Athletic Guelph",
    "city": "Guelph",
    "citySlug": "guelph",
    "province": "Ontario",
    "provinceSlug": "ontario",
    "country": "Canada",
    "street": "80 Stone Rd W",
    "phone": "+1 519-824-2200",
    "latitude": 43.5247884,
    "longitude": -80.2262663,
    "rating": 3.6
  },
  {
    "name": "Nu-Ceil Atlantic Distributors",
    "city": "Halifax",
    "citySlug": "halifax",
    "province": "Nova Scotia",
    "provinceSlug": "nova-scotia",
    "country": "Canada",
    "street": "8 Main Ave",
    "phone": "+1 902-479-1089",
    "latitude": 44.6617938,
    "longitude": -63.6289933
  },
  {
    "name": "The Sauna Shop Ltd.",
    "city": "Hamilton",
    "citySlug": "hamilton",
    "province": "Ontario",
    "provinceSlug": "ontario",
    "country": "Canada",
    "street": "53 Bittern St Unit 9",
    "phone": "+1 905-519-3396",
    "latitude": 43.19113,
    "longitude": -80.02291,
    "rating": 4.9
  },
  {
    "name": "King Sherman Sauna",
    "city": "Hamilton",
    "citySlug": "hamilton",
    "province": "Ontario",
    "provinceSlug": "ontario",
    "country": "Canada",
    "street": "893 King St E",
    "phone": "+1 905-545-5030",
    "latitude": 43.2515936,
    "longitude": -79.8394564,
    "rating": 3.1
  },
  {
    "name": "Hot Tubs Hamilton",
    "city": "Hamilton",
    "citySlug": "hamilton",
    "province": "Ontario",
    "provinceSlug": "ontario",
    "country": "Canada",
    "street": "1171 Upper James St Unit 9A",
    "phone": "+1 905-769-8585",
    "latitude": 43.2166933,
    "longitude": -79.8861482,
    "rating": 4.7
  },
  {
    "name": "Krucker Saunas",
    "city": "Hanmer",
    "citySlug": "hanmer",
    "province": "Ontario",
    "provinceSlug": "ontario",
    "country": "Canada",
    "street": "2233 Radar Rd",
    "phone": "+1 705-662-9392",
    "latitude": 46.6318079,
    "longitude": -80.8515656,
    "rating": 5
  },
  {
    "name": "Embrace Mobile Sauna Co",
    "city": "Heriot Bay",
    "citySlug": "heriot-bay",
    "province": "British Columbia",
    "provinceSlug": "british-columbia",
    "country": "Canada",
    "street": "673 Hotel Road",
    "phone": "+1 250-204-1556",
    "latitude": 50.1022501,
    "longitude": -125.2105959
  },
  {
    "name": "Saunas Canada - CEDAR LIFE, Cedar Saunas, Round saunas, Square saunas, Oval saunas Indoor & Outdoor",
    "city": "Innisfil",
    "citySlug": "innisfil",
    "province": "Ontario",
    "provinceSlug": "ontario",
    "country": "Canada",
    "street": "1988 Commerce Park Dr",
    "phone": "+1 647-560-7718",
    "latitude": 44.2824306,
    "longitude": -79.6753988,
    "rating": 3.7
  },
  {
    "name": "Kanata Hot Tubs - Spa, Saunas & Gazebos - sales and service",
    "city": "Kanata",
    "citySlug": "kanata",
    "province": "Ontario",
    "provinceSlug": "ontario",
    "country": "Canada",
    "street": "442 Hazeldean Rd",
    "phone": "+1 343-545-6509",
    "latitude": 45.2995143,
    "longitude": -75.885135,
    "rating": 5
  },
  {
    "name": "Bania Mira",
    "city": "Kars",
    "citySlug": "kars",
    "province": "Ontario",
    "provinceSlug": "ontario",
    "country": "Canada",
    "street": "5825 Second Line Rd",
    "phone": "+1 613-804-5577",
    "latitude": 45.1895006,
    "longitude": -75.7195403,
    "rating": 5
  },
  {
    "name": "Löyly Floating Sauna",
    "city": "Kelowna",
    "citySlug": "kelowna",
    "province": "British Columbia",
    "provinceSlug": "british-columbia",
    "country": "Canada",
    "street": "210 Bernard Ave",
    "latitude": 49.8870376,
    "longitude": -119.4998236,
    "rating": 5
  },
  {
    "name": "Sona Wellness",
    "city": "Kelowna",
    "citySlug": "kelowna",
    "province": "British Columbia",
    "provinceSlug": "british-columbia",
    "country": "Canada",
    "street": "1358 St Paul St Unit 102",
    "phone": "+1 250-763-2211",
    "latitude": 49.8900429,
    "longitude": -119.492101,
    "rating": 5
  },
  {
    "name": "Amour Mio Sauna",
    "city": "Kelowna",
    "citySlug": "kelowna",
    "province": "British Columbia",
    "provinceSlug": "british-columbia",
    "country": "Canada",
    "street": "545 Lawrence Ave #101A",
    "phone": "+1 236-970-7979",
    "latitude": 49.8853046,
    "longitude": -119.4918479,
    "rating": 5
  },
  {
    "name": "Spaworxs, Kelowna, BC Canada",
    "city": "Kelowna",
    "citySlug": "kelowna",
    "province": "British Columbia",
    "provinceSlug": "british-columbia",
    "country": "Canada",
    "latitude": 49.8863235,
    "longitude": -119.4965917
  },
  {
    "name": "Vitality Vault",
    "city": "Kelowna",
    "citySlug": "kelowna",
    "province": "British Columbia",
    "provinceSlug": "british-columbia",
    "country": "Canada",
    "street": "1691 Powick Rd #2",
    "phone": "+1 250-878-9881",
    "latitude": 49.8898964,
    "longitude": -119.424882,
    "rating": 5
  },
  {
    "name": "The Recovery Spa",
    "city": "Kelowna",
    "citySlug": "kelowna",
    "province": "British Columbia",
    "provinceSlug": "british-columbia",
    "country": "Canada",
    "street": "The Recovery Spa, 2936 Pandosy St Unit #3",
    "phone": "+1 250-258-9496",
    "latitude": 49.8643132,
    "longitude": -119.492868,
    "rating": 4.9
  },
  {
    "name": "Suda Saunas Inc.",
    "city": "Kelowna",
    "citySlug": "kelowna",
    "province": "British Columbia",
    "provinceSlug": "british-columbia",
    "country": "Canada",
    "street": "2485 Sexsmith Rd",
    "phone": "+1 250-864-2433",
    "latitude": 49.9248156,
    "longitude": -119.4214591,
    "rating": 5
  },
  {
    "name": "The Toronto Sauna Co.",
    "city": "King",
    "citySlug": "king",
    "province": "Ontario",
    "provinceSlug": "ontario",
    "country": "Canada",
    "street": "4681 Lloydtown-Aurora Rd",
    "phone": "+1 437-429-6623",
    "latitude": 43.9909484,
    "longitude": -79.6304599,
    "rating": 5
  },
  {
    "name": "Stoked Sauna Co.",
    "city": "Kingston",
    "citySlug": "kingston",
    "province": "Ontario",
    "provinceSlug": "ontario",
    "country": "Canada",
    "street": "225 King St E",
    "latitude": 44.2278556,
    "longitude": -76.4832348,
    "rating": 4.9
  },
  {
    "name": "Pole Fitness Kingston",
    "city": "Kingston",
    "citySlug": "kingston",
    "province": "Ontario",
    "provinceSlug": "ontario",
    "country": "Canada",
    "street": "267 Ontario St",
    "phone": "+1 800-358-0728",
    "latitude": 44.2314872,
    "longitude": -76.479193,
    "rating": 4.9
  },
  {
    "name": "MOVATI Athletic Kingsville",
    "city": "Kingsville",
    "citySlug": "kingsville",
    "province": "Ontario",
    "provinceSlug": "ontario",
    "country": "Canada",
    "street": "Square, 313 Main St E",
    "phone": "+1 519-733-1100",
    "latitude": 42.036891,
    "longitude": -82.7255859,
    "rating": 4.4
  },
  {
    "name": "Home Sauna Kits - Since 1974",
    "city": "Kitchener",
    "citySlug": "kitchener",
    "province": "Ontario",
    "provinceSlug": "ontario",
    "country": "Canada",
    "street": "830 Trillium Dr Unit #1",
    "phone": "+1 800-519-5753",
    "latitude": 43.3993931,
    "longitude": -80.4822772,
    "rating": 4.5
  },
  {
    "name": "Wellness Shop at Jacuzzi Kitchener",
    "city": "Kitchener",
    "citySlug": "kitchener",
    "province": "Ontario",
    "provinceSlug": "ontario",
    "country": "Canada",
    "street": "842 Victoria St N",
    "phone": "+1 519-578-1883",
    "latitude": 43.4641234,
    "longitude": -80.466547,
    "rating": 4.6
  },
  {
    "name": "Canadian Hot Tubs Inc.",
    "city": "Kitchener",
    "citySlug": "kitchener",
    "province": "Ontario",
    "provinceSlug": "ontario",
    "country": "Canada",
    "street": "330 Gage Ave #15",
    "phone": "+1 519-745-1651",
    "latitude": 43.4452919,
    "longitude": -80.5187524,
    "rating": 4.2
  },
  {
    "name": "Waterloo Water Services",
    "city": "Kitchener",
    "citySlug": "kitchener",
    "province": "Ontario",
    "provinceSlug": "ontario",
    "country": "Canada",
    "street": "40 Lancaster St W",
    "phone": "+1 226-374-4318",
    "latitude": 43.4602801,
    "longitude": -80.4827467,
    "rating": 5
  },
  {
    "name": "Kleefeld Sauna",
    "city": "Kleefeld",
    "citySlug": "kleefeld",
    "province": "Manitoba",
    "provinceSlug": "manitoba",
    "country": "Canada",
    "street": "32047 Froese Rd",
    "phone": "+1 204-326-7394",
    "latitude": 49.4810864,
    "longitude": -96.8442389,
    "rating": 5
  },
  {
    "name": "Centre Multiforme St-Raphael",
    "city": "L'Île-Bizard",
    "citySlug": "lle-bizard",
    "province": "Quebec",
    "provinceSlug": "quebec",
    "country": "Canada",
    "street": "750 Jacques Bizard Blvd",
    "phone": "+1 514-620-5444",
    "latitude": 45.5026903,
    "longitude": -73.8772863,
    "rating": 3.5
  },
  {
    "name": "Eternal Saunas & Structures",
    "city": "Lacombe County",
    "citySlug": "lacombe-county",
    "province": "Alberta",
    "provinceSlug": "alberta",
    "country": "Canada",
    "phone": "+1 403-350-1471",
    "latitude": 52.3938211,
    "longitude": -113.7461562,
    "rating": 5
  },
  {
    "name": "Woodland Saunas",
    "city": "Lake Country",
    "citySlug": "lake-country",
    "province": "British Columbia",
    "provinceSlug": "british-columbia",
    "country": "Canada",
    "street": "15438 Old Mission Rd",
    "phone": "+1 778-930-1942",
    "latitude": 50.107474,
    "longitude": -119.3944686,
    "rating": 5
  },
  {
    "name": "Suda saunas",
    "city": "Lake Country",
    "citySlug": "lake-country",
    "province": "British Columbia",
    "provinceSlug": "british-columbia",
    "country": "Canada",
    "street": "10527 Okanagan Centre Rd E",
    "latitude": 50.0350801,
    "longitude": -119.4098901
  },
  {
    "name": "The Little Sauna Company",
    "city": "Lakefield",
    "citySlug": "lakefield",
    "province": "Ontario",
    "provinceSlug": "ontario",
    "country": "Canada",
    "street": "17 Indacom Dr",
    "phone": "+1 705-874-1040",
    "latitude": 44.3705968,
    "longitude": -78.2247556,
    "rating": 5
  },
  {
    "name": "Float Lakeshore & LaSalle!",
    "city": "Lakeshore",
    "citySlug": "lakeshore",
    "province": "Ontario",
    "provinceSlug": "ontario",
    "country": "Canada",
    "street": "1303 County Rd 22 #175",
    "phone": "+1 226-363-0918",
    "latitude": 42.2960788,
    "longitude": -82.7503064
  },
  {
    "name": "Blackstone Saunas Vancouver",
    "city": "Langley Twp",
    "citySlug": "langley-twp",
    "province": "British Columbia",
    "provinceSlug": "british-columbia",
    "country": "Canada",
    "street": "9355 198 St",
    "phone": "+1 604-544-5005",
    "latitude": 49.1730807,
    "longitude": -122.6745405,
    "rating": 4.9
  },
  {
    "name": "Theraluxe",
    "city": "Langley Twp",
    "citySlug": "langley-twp",
    "province": "British Columbia",
    "provinceSlug": "british-columbia",
    "country": "Canada",
    "street": "2974 224 St",
    "phone": "+1 604-227-8883",
    "latitude": 49.0558153,
    "longitude": -122.6035511,
    "rating": 5
  },
  {
    "name": "Sauna Montreal Inc | Vente de sauna infrarouge et de sauna Baril",
    "city": "Laval",
    "citySlug": "laval",
    "province": "Quebec",
    "provinceSlug": "quebec",
    "country": "Canada",
    "street": "1665 Rue de Mingan",
    "phone": "+1 888-494-3218",
    "latitude": 45.5329156,
    "longitude": -73.8597477,
    "rating": 4.5
  },
  {
    "name": "Sauna Specialist Inc",
    "city": "Laval",
    "citySlug": "laval",
    "province": "Quebec",
    "provinceSlug": "quebec",
    "country": "Canada",
    "street": "1980 Rue Monterey",
    "phone": "+1 450-689-2422",
    "latitude": 45.5840276,
    "longitude": -73.7530405,
    "rating": 4.1
  },
  {
    "name": "Sauna Pekka Inc.",
    "city": "Laval",
    "citySlug": "laval",
    "province": "Quebec",
    "provinceSlug": "quebec",
    "country": "Canada",
    "street": "1980 Rue Monterey",
    "phone": "+1 450-689-2422",
    "latitude": 45.5840276,
    "longitude": -73.7530405,
    "rating": 4
  },
  {
    "name": "Backcountry Recreation",
    "city": "Laval",
    "citySlug": "laval",
    "province": "Quebec",
    "provinceSlug": "quebec",
    "country": "Canada",
    "street": "1065-A Av. des Perron",
    "phone": "+1 877-446-3565",
    "latitude": 45.6339997,
    "longitude": -73.7437573,
    "rating": 5
  },
  {
    "name": "Arubah Health Spa",
    "city": "Lethbridge",
    "citySlug": "lethbridge",
    "province": "Alberta",
    "provinceSlug": "alberta",
    "country": "Canada",
    "street": "104 13 St N #278",
    "phone": "+1 403-892-8229",
    "latitude": 49.6992119,
    "longitude": -112.8247369,
    "rating": 5
  },
  {
    "name": "Tranquility Acupuncture & Wellness Clinic",
    "city": "Lethbridge",
    "citySlug": "lethbridge",
    "province": "Alberta",
    "provinceSlug": "alberta",
    "country": "Canada",
    "street": "553 40 St S #1",
    "phone": "+1 403-329-0108",
    "latitude": 49.692698,
    "longitude": -112.783634,
    "rating": 4.9
  },
  {
    "name": "Legge Sauna and Spa",
    "city": "Listowel",
    "citySlug": "listowel",
    "province": "Ontario",
    "provinceSlug": "ontario",
    "country": "Canada",
    "street": "126 Main St W",
    "phone": "+1 519-291-5987",
    "latitude": 43.7315089,
    "longitude": -80.9535017,
    "rating": 2
  },
  {
    "name": "Northern Star Horizon",
    "city": "Listowel",
    "citySlug": "listowel",
    "province": "Ontario",
    "provinceSlug": "ontario",
    "country": "Canada",
    "street": "1885 Mitchell Rd S",
    "phone": "+1 519-292-9194",
    "latitude": 43.7224371,
    "longitude": -80.9771508,
    "rating": 5
  },
  {
    "name": "Human Habits, The Hub",
    "city": "Lloydminster",
    "citySlug": "lloydminster",
    "province": "Alberta",
    "provinceSlug": "alberta",
    "country": "Canada",
    "street": "5101 49 St",
    "phone": "+1 780-870-0693",
    "latitude": 53.2822446,
    "longitude": -110.008208,
    "rating": 5
  },
  {
    "name": "Jacuzzi Hot Tubs of Lloydminster",
    "city": "Lloydminster",
    "citySlug": "lloydminster",
    "province": "Alberta",
    "provinceSlug": "alberta",
    "country": "Canada",
    "street": "6205 51 Ave",
    "phone": "+1 780-874-0074",
    "latitude": 53.3001938,
    "longitude": -110.0082597,
    "rating": 4.5
  },
  {
    "name": "Par. Sauna On Wheels",
    "city": "London",
    "citySlug": "london",
    "province": "Ontario",
    "provinceSlug": "ontario",
    "country": "Canada",
    "street": "1919 Trafalgar St #71",
    "phone": "+1 226-444-3919",
    "latitude": 42.99161,
    "longitude": -81.16747,
    "rating": 5
  },
  {
    "name": "Salt Therapy Wellness Centre",
    "city": "London",
    "citySlug": "london",
    "province": "Ontario",
    "provinceSlug": "ontario",
    "country": "Canada",
    "street": "585 Oxford St E",
    "phone": "+1 519-433-5500",
    "latitude": 42.9996775,
    "longitude": -81.2382857,
    "rating": 4.7
  },
  {
    "name": "Wellness Shop at Jacuzzi London",
    "city": "London",
    "citySlug": "london",
    "province": "Ontario",
    "provinceSlug": "ontario",
    "country": "Canada",
    "street": "410 Southdale Rd W",
    "phone": "+1 519-937-1417",
    "latitude": 42.939271,
    "longitude": -81.2828735,
    "rating": 4.6
  },
  {
    "name": "Tantrum Sun Lux Medi Spa",
    "city": "London",
    "citySlug": "london",
    "province": "Ontario",
    "provinceSlug": "ontario",
    "country": "Canada",
    "street": "733 Richmond St",
    "phone": "+1 519-432-9991",
    "latitude": 42.9946936,
    "longitude": -81.2530837,
    "rating": 4.6
  },
  {
    "name": "Vay Kay Spa",
    "city": "London",
    "citySlug": "london",
    "province": "Ontario",
    "provinceSlug": "ontario",
    "country": "Canada",
    "street": "2522 Main St",
    "phone": "+1 519-630-7071",
    "latitude": 42.9097017,
    "longitude": -81.2987626,
    "rating": 5
  },
  {
    "name": "Hygge SPA",
    "city": "Longueuil",
    "citySlug": "longueuil",
    "province": "Quebec",
    "provinceSlug": "quebec",
    "country": "Canada",
    "street": "1660 Boulevard Roland-Therrien",
    "phone": "+1 514-589-0346",
    "latitude": 45.5374447,
    "longitude": -73.4791096
  },
  {
    "name": "Spa Nordic Station",
    "city": "Magog",
    "citySlug": "magog",
    "province": "Quebec",
    "provinceSlug": "quebec",
    "country": "Canada",
    "street": "285 Chem. des Pères",
    "phone": "+1 819-843-5200",
    "latitude": 45.2761779,
    "longitude": -72.2034649,
    "rating": 4.5
  },
  {
    "name": "Surreal Cedar",
    "city": "Maple Ridge",
    "citySlug": "maple-ridge",
    "province": "British Columbia",
    "provinceSlug": "british-columbia",
    "country": "Canada",
    "street": "11025 249 St",
    "phone": "+1 604-861-8409",
    "latitude": 49.2027559,
    "longitude": -122.5323705,
    "rating": 5
  },
  {
    "name": "Float Valley",
    "city": "Markham",
    "citySlug": "markham",
    "province": "Ontario",
    "provinceSlug": "ontario",
    "country": "Canada",
    "street": "5261 Hwy 7 C102",
    "phone": "+1 905-205-0859",
    "latitude": 43.866381,
    "longitude": -79.2835431,
    "rating": 4.9
  },
  {
    "name": "Club Dynasty Executive Health Spa & Exotic Massage",
    "city": "Markham",
    "citySlug": "markham",
    "province": "Ontario",
    "provinceSlug": "ontario",
    "country": "Canada",
    "street": "7850 Woodbine Ave",
    "phone": "+1 905-477-0099",
    "latitude": 43.8338011,
    "longitude": -79.3550933,
    "rating": 4.6
  },
  {
    "name": "Hot Rock Sauna Spa",
    "city": "Markham",
    "citySlug": "markham",
    "province": "Ontario",
    "provinceSlug": "ontario",
    "country": "Canada",
    "street": "8791 Woodbine Ave Unit 206",
    "phone": "+1 905-604-9337",
    "latitude": 43.8560705,
    "longitude": -79.358392,
    "rating": 3.7
  },
  {
    "name": "Ryt Saunas",
    "city": "Markham",
    "citySlug": "markham",
    "province": "Ontario",
    "provinceSlug": "ontario",
    "country": "Canada",
    "street": "3 Hamilton Hall Dr",
    "phone": "+1 416-760-6945",
    "latitude": 43.8767605,
    "longitude": -79.2496561,
    "rating": 5
  },
  {
    "name": "Spa of Eden Executive Wellness & Massage Spa Markham",
    "city": "Markham",
    "citySlug": "markham",
    "province": "Ontario",
    "provinceSlug": "ontario",
    "country": "Canada",
    "street": "398 Ferrier St 2nd Floor",
    "phone": "+1 905-305-9833",
    "latitude": 43.8204721,
    "longitude": -79.3307806,
    "rating": 5
  },
  {
    "name": "Excellent Health Club Inc ｜ 潨樂會",
    "city": "Markham",
    "citySlug": "markham",
    "province": "Ontario",
    "provinceSlug": "ontario",
    "country": "Canada",
    "street": "398 Ferrier St 2nd Floor",
    "phone": "+1 905-305-9833",
    "latitude": 43.8204721,
    "longitude": -79.3307806,
    "rating": 4.6
  },
  {
    "name": "Go Place",
    "city": "Markham",
    "citySlug": "markham",
    "province": "Ontario",
    "provinceSlug": "ontario",
    "country": "Canada",
    "street": "3275 Hwy 7 Unit 2",
    "phone": "+1 905-261-7777",
    "latitude": 43.8502569,
    "longitude": -79.3500663,
    "rating": 4.3
  },
  {
    "name": "Bluebelly sauna rentals",
    "city": "McKerrow",
    "citySlug": "mckerrow",
    "province": "Ontario",
    "provinceSlug": "ontario",
    "country": "Canada",
    "street": "371 ON-17",
    "phone": "+1 705-822-0693",
    "latitude": 46.2853612,
    "longitude": -81.7705646,
    "rating": 5
  },
  {
    "name": "Northern Leisure Products",
    "city": "Meaford",
    "citySlug": "meaford",
    "province": "Ontario",
    "provinceSlug": "ontario",
    "country": "Canada",
    "street": "103 Stewart St Unit 3",
    "phone": "+1 705-606-7727",
    "latitude": 44.6163018,
    "longitude": -80.6048785,
    "rating": 5
  },
  {
    "name": "Northern Hot Tubs (Canada Support Centre)",
    "city": "Meaford",
    "citySlug": "meaford",
    "province": "Ontario",
    "provinceSlug": "ontario",
    "country": "Canada",
    "street": "103 Stewart St",
    "phone": "+1 844-456-6784",
    "latitude": 44.6164342,
    "longitude": -80.604413,
    "rating": 5
  },
  {
    "name": "Pamper My Senses Wellness Day Spa",
    "city": "Medicine Hat",
    "citySlug": "medicine-hat",
    "province": "Alberta",
    "provinceSlug": "alberta",
    "country": "Canada",
    "street": "1870 B 6 Ave SW",
    "phone": "+1 403-527-1991",
    "latitude": 50.0206413,
    "longitude": -110.6997604,
    "rating": 4.9
  },
  {
    "name": "Wildwood Saunas Metchosin",
    "city": "Metchosin",
    "citySlug": "metchosin",
    "province": "British Columbia",
    "provinceSlug": "british-columbia",
    "country": "Canada",
    "street": "4185 Metchosin Rd",
    "phone": "+1 250-940-3731",
    "latitude": 48.3861924,
    "longitude": -123.5263941,
    "rating": 4.9
  },
  {
    "name": "Folklore Sauna Company",
    "city": "Middle Sackville",
    "citySlug": "middle-sackville",
    "province": "Nova Scotia",
    "provinceSlug": "nova-scotia",
    "country": "Canada",
    "street": "161 Lively Rd unit 1",
    "phone": "+1 902-266-6350",
    "latitude": 44.8029074,
    "longitude": -63.7226997,
    "rating": 4.9
  },
  {
    "name": "Huronia LeisureScapes",
    "city": "Midland",
    "citySlug": "midland",
    "province": "Ontario",
    "provinceSlug": "ontario",
    "country": "Canada",
    "street": "889 King St",
    "phone": "+1 705-527-7665",
    "latitude": 44.7330856,
    "longitude": -79.8702087,
    "rating": 4.4
  },
  {
    "name": "Bamboo Spa",
    "city": "Midland",
    "citySlug": "midland",
    "province": "Ontario",
    "provinceSlug": "ontario",
    "country": "Canada",
    "street": "351 First St",
    "phone": "+1 705-526-0222",
    "latitude": 44.7472548,
    "longitude": -79.8847038,
    "rating": 4.5
  },
  {
    "name": "Grand Saunas Inc",
    "city": "Milton",
    "citySlug": "milton",
    "province": "Ontario",
    "provinceSlug": "ontario",
    "country": "Canada",
    "street": "12478 Britannia Rd E",
    "phone": "+1 905-268-9890",
    "latitude": 43.5292995,
    "longitude": -79.7866944,
    "rating": 4.3
  },
  {
    "name": "Steamul Sauna Mississauga",
    "city": "Mississauga",
    "citySlug": "mississauga",
    "province": "Ontario",
    "provinceSlug": "ontario",
    "country": "Canada",
    "street": "1310 Dundas St E #14",
    "phone": "+1 647-427-3940",
    "latitude": 43.6064431,
    "longitude": -79.585142,
    "rating": 4.6
  },
  {
    "name": "BYT Beauty and Health 白玉堂",
    "city": "Mississauga",
    "citySlug": "mississauga",
    "province": "Ontario",
    "provinceSlug": "ontario",
    "country": "Canada",
    "street": "1177 Central Pkwy W #80",
    "phone": "+1 905-277-8838",
    "latitude": 43.5673186,
    "longitude": -79.6590975,
    "rating": 4.5
  },
  {
    "name": "Sauna Specialist Inc.",
    "city": "Mississauga",
    "citySlug": "mississauga",
    "province": "Ontario",
    "provinceSlug": "ontario",
    "country": "Canada",
    "street": "Boulevard, 1320 Mid-Way unite 16",
    "phone": "+1 450-689-2422",
    "latitude": 43.6646028,
    "longitude": -79.6670535,
    "rating": 4.6
  },
  {
    "name": "Recover U Sauna",
    "city": "Mississauga",
    "citySlug": "mississauga",
    "province": "Ontario",
    "provinceSlug": "ontario",
    "country": "Canada",
    "street": "3465 Semenyk Ct",
    "phone": "+1 647-866-8772",
    "latitude": 43.5688113,
    "longitude": -79.6526921,
    "rating": 5
  },
  {
    "name": "By The Lake Massage Therapy & Wellness Centre Inc.",
    "city": "Mississauga",
    "citySlug": "mississauga",
    "province": "Ontario",
    "provinceSlug": "ontario",
    "country": "Canada",
    "street": "110 Lakeshore Rd E",
    "phone": "+1 905-271-8878",
    "latitude": 43.5538196,
    "longitude": -79.5835291,
    "rating": 4.9
  },
  {
    "name": "Body and Soul Day Spa",
    "city": "Mississauga",
    "citySlug": "mississauga",
    "province": "Ontario",
    "provinceSlug": "ontario",
    "country": "Canada",
    "street": "214 Queen St S",
    "phone": "+1 905-814-0659",
    "latitude": 43.5807784,
    "longitude": -79.7129042,
    "rating": 4.6
  },
  {
    "name": "G.I. Joe",
    "city": "Montreal",
    "citySlug": "montreal",
    "province": "Quebec",
    "provinceSlug": "quebec",
    "country": "Canada",
    "street": "1166 St Catherine St E",
    "phone": "+1 514-528-3326",
    "latitude": 45.5180941,
    "longitude": -73.5561666,
    "rating": 3.9
  },
  {
    "name": "Lucky Water Spa and Sauna Massage",
    "city": "Montreal",
    "citySlug": "montreal",
    "province": "Quebec",
    "provinceSlug": "quebec",
    "country": "Canada",
    "street": "99 Av. Viger O",
    "phone": "+1 514-878-4011",
    "latitude": 45.5067798,
    "longitude": -73.5598939,
    "rating": 3.7
  },
  {
    "name": "Sauna Centre-Ville",
    "city": "Montreal",
    "citySlug": "montreal",
    "province": "Quebec",
    "provinceSlug": "quebec",
    "country": "Canada",
    "street": "1465 St Catherine St E",
    "phone": "+1 514-524-3486",
    "latitude": 45.5207989,
    "longitude": -73.5542143,
    "rating": 3.3
  },
  {
    "name": "Oasis",
    "city": "Montreal",
    "citySlug": "montreal",
    "province": "Quebec",
    "provinceSlug": "quebec",
    "country": "Canada",
    "street": "1390 St Catherine St E",
    "phone": "+1 514-521-0785",
    "latitude": 45.520225,
    "longitude": -73.5541292,
    "rating": 3.7
  },
  {
    "name": "Bain Colonial",
    "city": "Montreal",
    "citySlug": "montreal",
    "province": "Quebec",
    "provinceSlug": "quebec",
    "country": "Canada",
    "street": "3963 Coloniale Ave",
    "phone": "+1 514-285-0132",
    "latitude": 45.5174739,
    "longitude": -73.5773897,
    "rating": 4.2
  },
  {
    "name": "Nubia Green Spa",
    "city": "Montreal",
    "citySlug": "montreal",
    "province": "Quebec",
    "provinceSlug": "quebec",
    "country": "Canada",
    "street": "5344 St Laurent Blvd",
    "phone": "+1 514-903-1344",
    "latitude": 45.524653,
    "longitude": -73.596788,
    "rating": 4.4
  },
  {
    "name": "Banya St-Jacques",
    "city": "Montreal",
    "citySlug": "montreal",
    "province": "Quebec",
    "provinceSlug": "quebec",
    "country": "Canada",
    "street": "6120 Rue Saint-Jacques #121",
    "phone": "+1 514-481-0006",
    "latitude": 45.4641674,
    "longitude": -73.614677,
    "rating": 4.8
  },
  {
    "name": "L'Absolu Spa",
    "city": "Montreal",
    "citySlug": "montreal",
    "province": "Quebec",
    "provinceSlug": "quebec",
    "country": "Canada",
    "street": "10211 St Laurent Blvd",
    "phone": "+1 514-383-6363",
    "latitude": 45.548221,
    "longitude": -73.6632983,
    "rating": 4.7
  },
  {
    "name": "Conscience de soi - Refuge Urbain",
    "city": "Montreal",
    "citySlug": "montreal",
    "province": "Quebec",
    "provinceSlug": "quebec",
    "country": "Canada",
    "street": "1670 Rue Fleury E",
    "phone": "+1 579-372-5196",
    "latitude": 45.5654401,
    "longitude": -73.6546363,
    "rating": 5
  },
  {
    "name": "Spa William Gray",
    "city": "Montreal",
    "citySlug": "montreal",
    "province": "Quebec",
    "provinceSlug": "quebec",
    "country": "Canada",
    "street": "421 R. Saint-Vincent Niveau P1",
    "phone": "+1 438-387-2008",
    "latitude": 45.5071917,
    "longitude": -73.5533169,
    "rating": 4.3
  },
  {
    "name": "Avie Spa",
    "city": "Montreal",
    "citySlug": "montreal",
    "province": "Quebec",
    "provinceSlug": "quebec",
    "country": "Canada",
    "street": "447 Rue Saint-Jean-Baptiste",
    "phone": "+1 514-907-8080",
    "latitude": 45.5063558,
    "longitude": -73.55477,
    "rating": 4.4
  },
  {
    "name": "U.N.I. Training Vieux Montreal",
    "city": "Montreal",
    "citySlug": "montreal",
    "province": "Quebec",
    "provinceSlug": "quebec",
    "country": "Canada",
    "street": "507 Place d'Armes Basement",
    "phone": "+1 438-386-6010",
    "latitude": 45.5051378,
    "longitude": -73.5567077,
    "rating": 4.8
  },
  {
    "name": "Studio Orchidée",
    "city": "Montreal",
    "citySlug": "montreal",
    "province": "Quebec",
    "provinceSlug": "quebec",
    "country": "Canada",
    "street": "253 Duluth Ave E",
    "phone": "+1 514-224-8855",
    "latitude": 45.5194297,
    "longitude": -73.5772938,
    "rating": 4.5
  },
  {
    "name": "Moonlight Sauna Muskoka",
    "city": "Muskoka Lakes",
    "citySlug": "muskoka-lakes",
    "province": "Ontario",
    "provinceSlug": "ontario",
    "country": "Canada",
    "street": "3852 Muskoka Rd 169",
    "phone": "+1 705-706-1313",
    "latitude": 45.0759694,
    "longitude": -79.6324861,
    "rating": 5
  },
  {
    "name": "Island Sauna Nanaimo",
    "city": "Nanaimo",
    "citySlug": "nanaimo",
    "province": "British Columbia",
    "provinceSlug": "british-columbia",
    "country": "Canada",
    "street": "4700 Island Hwy N",
    "phone": "+1 250-607-4328",
    "latitude": 49.2119895,
    "longitude": -124.0260515,
    "rating": 4.8
  },
  {
    "name": "Intuit Movement Studio",
    "city": "Nelson",
    "citySlug": "nelson",
    "province": "British Columbia",
    "provinceSlug": "british-columbia",
    "country": "Canada",
    "street": "402 Baker St #106",
    "phone": "+1 604-889-3456",
    "latitude": 49.4915636,
    "longitude": -117.294693,
    "rating": 5
  },
  {
    "name": "MOVATI Athletic Nepean",
    "city": "Nepean",
    "citySlug": "nepean",
    "province": "Ontario",
    "provinceSlug": "ontario",
    "country": "Canada",
    "street": "1395 Meadowlands Dr E",
    "phone": "+1 613-515-2665",
    "latitude": 45.3535563,
    "longitude": -75.7317149,
    "rating": 3.5
  },
  {
    "name": "Casa de Sauna | Mobile Sauna | Outdoor Sauna | Barrel Sauna | DIY Sauna Kits & More",
    "city": "New Tecumseth",
    "citySlug": "new-tecumseth",
    "province": "Ontario",
    "provinceSlug": "ontario",
    "country": "Canada",
    "street": "6048 ON-9",
    "phone": "+1 647-406-4734",
    "latitude": 44.0114629,
    "longitude": -79.6795517,
    "rating": 4.9
  },
  {
    "name": "Steam 1",
    "city": "New Westminster",
    "citySlug": "new-westminster",
    "province": "British Columbia",
    "provinceSlug": "british-columbia",
    "country": "Canada",
    "street": "430 Columbia St",
    "phone": "+1 604-540-2117",
    "latitude": 49.203959,
    "longitude": -122.905888,
    "rating": 3.1
  },
  {
    "name": "Nevskaya Sauna - Баня",
    "city": "Newmarket",
    "citySlug": "newmarket",
    "province": "Ontario",
    "provinceSlug": "ontario",
    "country": "Canada",
    "street": "38 Parkside Dr Unit # 9",
    "phone": "+1 905-967-0303",
    "latitude": 44.0549087,
    "longitude": -79.4729736,
    "rating": 4.8
  },
  {
    "name": "Master Sauna баня",
    "city": "Newmarket",
    "citySlug": "newmarket",
    "province": "Ontario",
    "provinceSlug": "ontario",
    "country": "Canada",
    "street": "81 Davis Dr",
    "phone": "+1 905-235-7555",
    "latitude": 44.0563226,
    "longitude": -79.4767352,
    "rating": 4.8
  },
  {
    "name": "Burning Springs Spa & Thermal Pools",
    "city": "Niagara Falls",
    "citySlug": "niagara-falls",
    "province": "Ontario",
    "provinceSlug": "ontario",
    "country": "Canada",
    "street": "6740 Fallsview Blvd",
    "phone": "+1 888-209-1001",
    "latitude": 43.0786282,
    "longitude": -79.0820462,
    "rating": 4
  },
  {
    "name": "Healing Salt Cave Niagara",
    "city": "Niagara Falls",
    "citySlug": "niagara-falls",
    "province": "Ontario",
    "provinceSlug": "ontario",
    "country": "Canada",
    "street": "4025 Dorchester Rd Unit C2",
    "phone": "+1 905-358-3003",
    "latitude": 43.1142103,
    "longitude": -79.1128232,
    "rating": 4.3
  },
  {
    "name": "The Sweat House",
    "city": "North Bay",
    "citySlug": "north-bay",
    "province": "Ontario",
    "provinceSlug": "ontario",
    "country": "Canada",
    "street": "9 Price Ave",
    "phone": "+1 705-471-6117",
    "latitude": 46.2651956,
    "longitude": -79.3993636,
    "rating": 5
  },
  {
    "name": "Rock Cedar Saunas",
    "city": "North Cowichan",
    "citySlug": "north-cowichan",
    "province": "British Columbia",
    "provinceSlug": "british-columbia",
    "country": "Canada",
    "street": "7338 Walton Mountain Rd",
    "phone": "+1 250-732-1977",
    "latitude": 48.8369564,
    "longitude": -123.6509112,
    "rating": 5
  },
  {
    "name": "Solstice sauna North Hatley | Sauna social",
    "city": "North Hatley",
    "citySlug": "north-hatley",
    "province": "Quebec",
    "provinceSlug": "quebec",
    "country": "Canada",
    "street": "160 R. Main",
    "phone": "+1 819-201-7621",
    "latitude": 45.2743947,
    "longitude": -71.9755333,
    "rating": 4.9
  },
  {
    "name": "Longevity Resources Inc",
    "city": "North Saanich",
    "citySlug": "north-saanich",
    "province": "British Columbia",
    "provinceSlug": "british-columbia",
    "country": "Canada",
    "street": "9544 Aurora Pl",
    "phone": "+1 250-654-0092",
    "latitude": 48.6414118,
    "longitude": -123.4191574,
    "rating": 5
  },
  {
    "name": "Vancouver Sauna",
    "city": "North Vancouver",
    "citySlug": "north-vancouver",
    "province": "British Columbia",
    "provinceSlug": "british-columbia",
    "country": "Canada",
    "street": "155 1st St E",
    "phone": "+1 604-770-3317",
    "latitude": 49.310854,
    "longitude": -123.0765601,
    "rating": 5
  },
  {
    "name": "Tality Wellness Shipyards",
    "city": "North Vancouver",
    "citySlug": "north-vancouver",
    "province": "British Columbia",
    "provinceSlug": "british-columbia",
    "country": "Canada",
    "street": "125 Victory Ship Way unit 240",
    "phone": "+1 604-210-9072",
    "latitude": 49.3100944,
    "longitude": -123.0789688,
    "rating": 4.9
  },
  {
    "name": "Jardin Deep Cove",
    "city": "North Vancouver",
    "citySlug": "north-vancouver",
    "province": "British Columbia",
    "provinceSlug": "british-columbia",
    "country": "Canada",
    "street": "4330 Gallant Ave",
    "latitude": 49.3269384,
    "longitude": -122.9512383,
    "rating": 5
  },
  {
    "name": "Northview Health & Wellness Centre",
    "city": "North Vancouver",
    "citySlug": "north-vancouver",
    "province": "British Columbia",
    "provinceSlug": "british-columbia",
    "country": "Canada",
    "street": "1124 Lonsdale Ave #300",
    "phone": "+1 604-986-3771",
    "latitude": 49.3183944,
    "longitude": -123.0720302,
    "rating": 4.8
  },
  {
    "name": "Steam Sauna",
    "city": "North York",
    "citySlug": "north-york",
    "province": "Ontario",
    "provinceSlug": "ontario",
    "country": "Canada",
    "street": "153 Bridgeland Ave #13",
    "phone": "+1 800-387-0309",
    "latitude": 43.7242187,
    "longitude": -79.4636176,
    "rating": 4.7
  },
  {
    "name": "Ambassador Club Ltd",
    "city": "North York",
    "citySlug": "north-york",
    "province": "Ontario",
    "provinceSlug": "ontario",
    "country": "Canada",
    "street": "638 Sheppard Ave W",
    "phone": "+1 416-635-6510",
    "latitude": 43.7554493,
    "longitude": -79.4411676,
    "rating": 4.6
  },
  {
    "name": "AH Maritime Services inc.",
    "city": "Notre-Dame",
    "citySlug": "notre-dame",
    "province": "New Brunswick",
    "provinceSlug": "new-brunswick",
    "country": "Canada",
    "street": "3285 NB-115",
    "phone": "+1 506-377-7996",
    "latitude": 46.2632677,
    "longitude": -64.7780213
  },
  {
    "name": "ELU - Saunas & Cold Tubs",
    "city": "Oakville",
    "citySlug": "oakville",
    "province": "Ontario",
    "provinceSlug": "ontario",
    "country": "Canada",
    "street": "635 Fourth Line Unit 1",
    "phone": "+1 647-569-7262",
    "latitude": 43.4339907,
    "longitude": -79.7001197,
    "rating": 4.8
  },
  {
    "name": "Thrive Lounge (formerly Tan Temptations)~Tanning, Red Light Therapy, Infrared Sauna, UV Therapy, Oxygen Bar",
    "city": "Oakville",
    "citySlug": "oakville",
    "province": "Ontario",
    "provinceSlug": "ontario",
    "country": "Canada",
    "street": "478 Dundas St W",
    "phone": "+1 905-257-7575",
    "latitude": 43.4639837,
    "longitude": -79.7420764,
    "rating": 4.5
  },
  {
    "name": "Canadian Spa Company",
    "city": "Oakville",
    "citySlug": "oakville",
    "province": "Ontario",
    "provinceSlug": "ontario",
    "country": "Canada",
    "street": "1283 Cornwall Rd",
    "phone": "+1 877-909-7727",
    "latitude": 43.4725243,
    "longitude": -79.6659423,
    "rating": 4.2
  },
  {
    "name": "All About U Massage & Wellness",
    "city": "Olds",
    "citySlug": "olds",
    "province": "Alberta",
    "provinceSlug": "alberta",
    "country": "Canada",
    "street": "4513 52 Ave #5",
    "phone": "+1 403-556-1134",
    "latitude": 51.7959715,
    "longitude": -114.1084641,
    "rating": 4.9
  },
  {
    "name": "Ontario Sauna Company",
    "city": "Orangeville",
    "citySlug": "orangeville",
    "province": "Ontario",
    "provinceSlug": "ontario",
    "country": "Canada",
    "street": "205060 Dufferin Rd 109",
    "phone": "+1 519-216-6949",
    "latitude": 43.8994765,
    "longitude": -80.1900088,
    "rating": 5
  },
  {
    "name": "Kneaded Touch Integrated Health",
    "city": "Orléans",
    "citySlug": "orlans",
    "province": "Ontario",
    "provinceSlug": "ontario",
    "country": "Canada",
    "street": "2555 St Joseph Blvd #101",
    "phone": "+1 613-841-2917",
    "latitude": 45.471107,
    "longitude": -75.5257034,
    "rating": 4.6
  },
  {
    "name": "MOVATI Athletic Orleans",
    "city": "Orléans",
    "citySlug": "orlans",
    "province": "Ontario",
    "provinceSlug": "ontario",
    "country": "Canada",
    "street": "3772 Innes Rd",
    "phone": "+1 613-824-4100",
    "latitude": 45.4488024,
    "longitude": -75.514334,
    "rating": 3.3
  },
  {
    "name": "Uppliva Nordic Spa",
    "city": "Ottawa",
    "citySlug": "ottawa",
    "province": "Ontario",
    "provinceSlug": "ontario",
    "country": "Canada",
    "street": "1140 Wellington St. W Suite C100",
    "phone": "+1 613-421-3880",
    "latitude": 45.4014995,
    "longitude": -75.7268756,
    "rating": 4.8
  },
  {
    "name": "Canadian Spa Company",
    "city": "Ottawa",
    "citySlug": "ottawa",
    "province": "Ontario",
    "provinceSlug": "ontario",
    "country": "Canada",
    "street": "50 Frank Nighbor Pl",
    "phone": "+1 877-909-7727",
    "latitude": 45.2991757,
    "longitude": -75.9164128,
    "rating": 3.4
  },
  {
    "name": "Salmo Craft Co.",
    "city": "Ottawa",
    "citySlug": "ottawa",
    "province": "Ontario",
    "provinceSlug": "ontario",
    "country": "Canada",
    "street": "132 Billings Ave",
    "phone": "+1 613-296-1057",
    "latitude": 45.3938328,
    "longitude": -75.6677151
  },
  {
    "name": "Chinook Hot Tubs & Saunas",
    "city": "Ottawa",
    "citySlug": "ottawa",
    "province": "Ontario",
    "provinceSlug": "ontario",
    "country": "Canada",
    "street": "2050 Scott St",
    "phone": "+1 613-729-1447",
    "latitude": 45.3953408,
    "longitude": -75.7538779,
    "rating": 4.6
  },
  {
    "name": "MOVATI Athletic Trainyards",
    "city": "Ottawa",
    "citySlug": "ottawa",
    "province": "Ontario",
    "provinceSlug": "ontario",
    "country": "Canada",
    "street": "195 Trainyards Dr",
    "phone": "+1 613-789-5600",
    "latitude": 45.4121572,
    "longitude": -75.639868,
    "rating": 3.3
  },
  {
    "name": "MOVATI Athletic Barrhaven",
    "city": "Ottawa",
    "citySlug": "ottawa",
    "province": "Ontario",
    "provinceSlug": "ontario",
    "country": "Canada",
    "street": "15 Crestway Dr",
    "phone": "+1 613-515-2663",
    "latitude": 45.2769342,
    "longitude": -75.7140188,
    "rating": 3.1
  },
  {
    "name": "MOVATI Athletic Kanata",
    "city": "Ottawa",
    "citySlug": "ottawa",
    "province": "Ontario",
    "provinceSlug": "ontario",
    "country": "Canada",
    "street": "19 Frank Nighbor Pl",
    "phone": "+1 613-832-7700",
    "latitude": 45.3005765,
    "longitude": -75.9164338,
    "rating": 3.9
  },
  {
    "name": "True North Saunas",
    "city": "Owen Sound",
    "citySlug": "owen-sound",
    "province": "Ontario",
    "provinceSlug": "ontario",
    "country": "Canada",
    "street": "136 Thom Dr",
    "phone": "+1 226-668-5110",
    "latitude": 44.5631097,
    "longitude": -80.9873664,
    "rating": 4.4
  },
  {
    "name": "Vokes Industries",
    "city": "Owen Sound",
    "citySlug": "owen-sound",
    "province": "Ontario",
    "provinceSlug": "ontario",
    "country": "Canada",
    "street": "136 Thom Dr RR#5",
    "latitude": 44.5629448,
    "longitude": -80.9874555
  },
  {
    "name": "Eco-Tech Saunas",
    "city": "Paris",
    "citySlug": "paris",
    "province": "Ontario",
    "provinceSlug": "ontario",
    "country": "Canada",
    "street": "48 Woodslee Ave #3",
    "phone": "+1 226-228-3113",
    "latitude": 43.214471,
    "longitude": -80.3966362,
    "rating": 4
  },
  {
    "name": "feelgood collective",
    "city": "Parksville",
    "citySlug": "parksville",
    "province": "British Columbia",
    "provinceSlug": "british-columbia",
    "country": "Canada",
    "street": "380 Martindale Rd",
    "latitude": 49.3128199,
    "longitude": -124.2872464,
    "rating": 5
  },
  {
    "name": "Bodyworks Fitness",
    "city": "Parksville",
    "citySlug": "parksville",
    "province": "British Columbia",
    "provinceSlug": "british-columbia",
    "country": "Canada",
    "street": "124F Middleton Ave",
    "phone": "+1 250-248-3946",
    "latitude": 49.3199318,
    "longitude": -124.3115943,
    "rating": 4.7
  },
  {
    "name": "Vintage Sol Wellness",
    "city": "Parksville",
    "citySlug": "parksville",
    "province": "British Columbia",
    "provinceSlug": "british-columbia",
    "country": "Canada",
    "street": "125 McCarter St Unit 6A",
    "phone": "+1 250-586-6636",
    "latitude": 49.3199887,
    "longitude": -124.3106821,
    "rating": 4.6
  },
  {
    "name": "Elegance Sculpting",
    "city": "Parksville",
    "citySlug": "parksville",
    "province": "British Columbia",
    "provinceSlug": "british-columbia",
    "country": "Canada",
    "street": "135 Jensen Ave E",
    "phone": "+1 250-954-8206",
    "latitude": 49.318498,
    "longitude": -124.3111197,
    "rating": 4.6
  },
  {
    "name": "Northern Hot Tubs Parry Sound",
    "city": "Parry Sound",
    "citySlug": "parry-sound",
    "province": "Ontario",
    "provinceSlug": "ontario",
    "country": "Canada",
    "street": "148 Hwy 124",
    "phone": "+1 705-774-9033",
    "latitude": 45.4201141,
    "longitude": -80.0233185,
    "rating": 4.8
  },
  {
    "name": "The Wellness Studio Penticton",
    "city": "Penticton",
    "citySlug": "penticton",
    "province": "British Columbia",
    "provinceSlug": "british-columbia",
    "country": "Canada",
    "street": "Located in the Penticton Chiropractic & Co Clinic, 197 Warren Ave E #107",
    "phone": "+1 250-462-1105",
    "latitude": 49.4760221,
    "longitude": -119.5783578,
    "rating": 5
  },
  {
    "name": "Urban Collective Yoga & Wellness Lounge",
    "city": "Petawawa",
    "citySlug": "petawawa",
    "province": "Ontario",
    "provinceSlug": "ontario",
    "country": "Canada",
    "street": "3227 Petawawa Blvd",
    "phone": "+1 613-687-8425",
    "latitude": 45.8932875,
    "longitude": -77.2716194,
    "rating": 4.7
  },
  {
    "name": "HeLa Beauty and Medical",
    "city": "Petawawa",
    "citySlug": "petawawa",
    "province": "Ontario",
    "provinceSlug": "ontario",
    "country": "Canada",
    "street": "10 Canadian Forces Dr",
    "phone": "+1 613-735-4504",
    "latitude": 45.8878324,
    "longitude": -77.2618729,
    "rating": 5
  },
  {
    "name": "The Hot Tub People",
    "city": "Peterborough",
    "citySlug": "peterborough",
    "province": "Ontario",
    "provinceSlug": "ontario",
    "country": "Canada",
    "street": "494 The Parkway",
    "phone": "+1 705-768-8827",
    "latitude": 44.2732709,
    "longitude": -78.3420124,
    "rating": 4.1
  },
  {
    "name": "Peterborough Landscape Supply and Marquis Hot Tubs",
    "city": "Peterborough",
    "citySlug": "peterborough",
    "province": "Ontario",
    "provinceSlug": "ontario",
    "country": "Canada",
    "street": "1550 Lansdowne St W",
    "phone": "+1 705-749-1428",
    "latitude": 44.2785288,
    "longitude": -78.3640016,
    "rating": 4.3
  },
  {
    "name": "Georgian Bay Saunas and Sheds",
    "city": "Phelpston",
    "citySlug": "phelpston",
    "province": "Ontario",
    "provinceSlug": "ontario",
    "country": "Canada",
    "street": "13904 Simcoe County Rd 27",
    "phone": "+1 705-717-7050",
    "latitude": 44.5396758,
    "longitude": -79.8280982,
    "rating": 5
  },
  {
    "name": "MÖKKI Sauna",
    "city": "Piedmont",
    "citySlug": "piedmont",
    "province": "Quebec",
    "provinceSlug": "quebec",
    "country": "Canada",
    "street": "456 Bd des Laurentides",
    "phone": "+1 514-446-1122",
    "latitude": 45.8915094,
    "longitude": -74.1130689,
    "rating": 5
  },
  {
    "name": "Custom Conditioning",
    "city": "Pointe-Claire",
    "citySlug": "pointe-claire",
    "province": "Quebec",
    "provinceSlug": "quebec",
    "country": "Canada",
    "street": "201 Cartier Ave",
    "phone": "+1 514-983-6563",
    "latitude": 45.439341,
    "longitude": -73.826936,
    "rating": 5
  },
  {
    "name": "Northern Leisure Port Elgin",
    "city": "Port Elgin",
    "citySlug": "port-elgin",
    "province": "Ontario",
    "provinceSlug": "ontario",
    "country": "Canada",
    "street": "5026 ON-21 Unit 3",
    "phone": "+1 519-706-5222",
    "latitude": 44.4163328,
    "longitude": -81.4036272,
    "rating": 5
  },
  {
    "name": "Bruce County Leisure Products Ltd",
    "city": "Port Elgin",
    "citySlug": "port-elgin",
    "province": "Ontario",
    "provinceSlug": "ontario",
    "country": "Canada",
    "street": "5026 ON-21",
    "phone": "+1 519-706-5222",
    "latitude": 44.4163328,
    "longitude": -81.4036272,
    "rating": 5
  },
  {
    "name": "Sauna Suomi",
    "city": "Port Moody",
    "citySlug": "port-moody",
    "province": "British Columbia",
    "provinceSlug": "british-columbia",
    "country": "Canada",
    "street": "3237 St Johns St",
    "latitude": 49.2763991,
    "longitude": -122.8323277
  },
  {
    "name": "Eastern Shore Wellness",
    "city": "Porters Lake",
    "citySlug": "porters-lake",
    "province": "Nova Scotia",
    "provinceSlug": "nova-scotia",
    "country": "Canada",
    "street": "61 Stella Dr Unit # 4",
    "phone": "+1 902-221-1675",
    "latitude": 44.7429571,
    "longitude": -63.2788648,
    "rating": 4.9
  },
  {
    "name": "Solm Space",
    "city": "Porters Lake",
    "citySlug": "porters-lake",
    "province": "Nova Scotia",
    "provinceSlug": "nova-scotia",
    "country": "Canada",
    "street": "2014 Myra Rd",
    "phone": "+1 902-452-9444",
    "latitude": 44.7973799,
    "longitude": -63.39369
  },
  {
    "name": "Le Monarque; Chalet/Massothérapie/Spa/Sauna",
    "city": "Preissac",
    "citySlug": "preissac",
    "province": "Quebec",
    "provinceSlug": "quebec",
    "country": "Canada",
    "street": "831 Chem. de la Pointe",
    "phone": "+1 819-732-6080",
    "latitude": 48.3645399,
    "longitude": -78.3515976,
    "rating": 4.8
  },
  {
    "name": "Hot Box Saunas",
    "city": "Prince Albert",
    "citySlug": "prince-albert",
    "province": "Saskatchewan",
    "provinceSlug": "saskatchewan",
    "country": "Canada",
    "phone": "+1 306-980-6758",
    "latitude": 53.1954741,
    "longitude": -105.7423034,
    "rating": 5
  },
  {
    "name": "Tropical Pool & Spa Ltd",
    "city": "Prince George",
    "citySlug": "prince-george",
    "province": "British Columbia",
    "provinceSlug": "british-columbia",
    "country": "Canada",
    "street": "1701 Central St W",
    "phone": "+1 250-564-5690",
    "latitude": 53.9084659,
    "longitude": -122.7825841,
    "rating": 4.7
  },
  {
    "name": "Blackstone Saunas",
    "city": "Qualicum Beach",
    "citySlug": "qualicum-beach",
    "province": "British Columbia",
    "provinceSlug": "british-columbia",
    "country": "Canada",
    "street": "148 Fern Rd E Unit 3",
    "phone": "+1 250-752-1015",
    "latitude": 49.3459529,
    "longitude": -124.4392201,
    "rating": 4.3
  },
  {
    "name": "One Of A Kind Creative Woodcrafting",
    "city": "Qualicum Beach",
    "citySlug": "qualicum-beach",
    "province": "British Columbia",
    "provinceSlug": "british-columbia",
    "country": "Canada",
    "street": "3518 Brittain Blvd",
    "phone": "+1 250-415-9628",
    "latitude": 49.3113335,
    "longitude": -124.5067559,
    "rating": 5
  },
  {
    "name": "Club Spa Inc",
    "city": "Québec City",
    "citySlug": "qubec-city",
    "province": "Quebec",
    "provinceSlug": "quebec",
    "country": "Canada",
    "street": "2153 Boul. Louis-XIV",
    "phone": "+1 418-667-5468",
    "latitude": 46.8874187,
    "longitude": -71.2269442,
    "rating": 4.6
  },
  {
    "name": "Sauna Back Boys",
    "city": "Québec City",
    "citySlug": "qubec-city",
    "province": "Quebec",
    "provinceSlug": "quebec",
    "country": "Canada",
    "street": "264 Couronne St",
    "phone": "+1 418-521-6686",
    "latitude": 46.8161137,
    "longitude": -71.2263337,
    "rating": 3.7
  },
  {
    "name": "Hôtel Motel Le Châteauguay",
    "city": "Québec City",
    "citySlug": "qubec-city",
    "province": "Quebec",
    "provinceSlug": "quebec",
    "country": "Canada",
    "street": "3842 Bd Sainte-Anne",
    "phone": "+1 418-661-0037",
    "latitude": 46.8574256,
    "longitude": -71.1769901,
    "rating": 3.8
  },
  {
    "name": "Hammam Le Rituel",
    "city": "Québec City",
    "citySlug": "qubec-city",
    "province": "Quebec",
    "provinceSlug": "quebec",
    "country": "Canada",
    "street": "1373 Rue Provancher",
    "phone": "+1 418-521-8404",
    "latitude": 46.7533478,
    "longitude": -71.3440565,
    "rating": 4.6
  },
  {
    "name": "Club Action (Gym Hôtel Québec Inn)",
    "city": "Québec City",
    "citySlug": "qubec-city",
    "province": "Quebec",
    "provinceSlug": "quebec",
    "country": "Canada",
    "street": "7175 Wilfrid-Hamel Blvd",
    "phone": "+1 418-872-3020",
    "latitude": 46.7831806,
    "longitude": -71.3615775,
    "rating": 4.8
  },
  {
    "name": "Centre de Santé La Source (Hôtel Québec Inn)",
    "city": "Québec City",
    "citySlug": "qubec-city",
    "province": "Quebec",
    "provinceSlug": "quebec",
    "country": "Canada",
    "street": "7175 Wilfrid-Hamel Blvd",
    "phone": "+1 418-872-3020",
    "latitude": 46.7839043,
    "longitude": -71.3621186,
    "rating": 3.9
  },
  {
    "name": "Recovery Lab - Mind, Body, Stretch, Massage",
    "city": "Red Deer",
    "citySlug": "red-deer",
    "province": "Alberta",
    "provinceSlug": "alberta",
    "country": "Canada",
    "street": "2827 30 Ave #1229",
    "phone": "+1 587-819-5629",
    "latitude": 52.24497,
    "longitude": -113.7645901,
    "rating": 4.8
  },
  {
    "name": "Sun N Fun Pool & Spa",
    "city": "Red Deer",
    "citySlug": "red-deer",
    "province": "Alberta",
    "provinceSlug": "alberta",
    "country": "Canada",
    "street": "6782 50 Ave #3",
    "phone": "+1 403-346-4465",
    "latitude": 52.290917,
    "longitude": -113.8149635,
    "rating": 4.1
  },
  {
    "name": "SML Entertainment",
    "city": "Red Deer",
    "citySlug": "red-deer",
    "province": "Alberta",
    "provinceSlug": "alberta",
    "country": "Canada",
    "street": "409 Lantern St",
    "phone": "+1 403-348-2300",
    "latitude": 52.209728,
    "longitude": -113.8192187,
    "rating": 4.6
  },
  {
    "name": "Revive and Rejuvenate Sauna & Steam-bath",
    "city": "Regina",
    "citySlug": "regina",
    "province": "Saskatchewan",
    "provinceSlug": "saskatchewan",
    "country": "Canada",
    "street": "3097 Chuka Blvd",
    "phone": "+1 306-999-2200",
    "latitude": 50.4295282,
    "longitude": -104.5119107
  },
  {
    "name": "U Steam - Sauna à vendre",
    "city": "Repentigny",
    "citySlug": "repentigny",
    "province": "Quebec",
    "provinceSlug": "quebec",
    "country": "Canada",
    "street": "47 Rue Belmont",
    "phone": "+1 514-758-2759",
    "latitude": 45.7250554,
    "longitude": -73.4678285,
    "rating": 5
  },
  {
    "name": "Sona",
    "city": "Richmond",
    "citySlug": "richmond",
    "province": "British Columbia",
    "provinceSlug": "british-columbia",
    "country": "Canada",
    "street": "4899 Vanguard Rd #105",
    "latitude": 49.1775831,
    "longitude": -123.1013544
  },
  {
    "name": "Steamul Sauna Richmond Hill",
    "city": "Richmond Hill",
    "citySlug": "richmond-hill",
    "province": "Ontario",
    "provinceSlug": "ontario",
    "country": "Canada",
    "street": "9688 Leslie St",
    "phone": "+1 905-918-0274",
    "latitude": 43.873017,
    "longitude": -79.3903676,
    "rating": 4.4
  },
  {
    "name": "New Life Sauna",
    "city": "Richmond Hill",
    "citySlug": "richmond-hill",
    "province": "Ontario",
    "provinceSlug": "ontario",
    "country": "Canada",
    "street": "62 Rideau Dr",
    "phone": "+1 888-685-6895",
    "latitude": 43.8479189,
    "longitude": -79.423727,
    "rating": 4.8
  },
  {
    "name": "Banya Richmond Hill",
    "city": "Richmond Hill",
    "citySlug": "richmond-hill",
    "province": "Ontario",
    "provinceSlug": "ontario",
    "country": "Canada",
    "street": "13110 Yonge St #1",
    "phone": "+1 289-234-0441",
    "latitude": 43.9474124,
    "longitude": -79.4557531,
    "rating": 4.7
  },
  {
    "name": "Richmond Hill Natural Therapies & Spa Namaste",
    "city": "Richmond Hill",
    "citySlug": "richmond-hill",
    "province": "Ontario",
    "provinceSlug": "ontario",
    "country": "Canada",
    "street": "116 Church St S",
    "phone": "+1 905-883-9355",
    "latitude": 43.8721843,
    "longitude": -79.4364253,
    "rating": 4.7
  },
  {
    "name": "MOVATI Athletic Richmond Hill",
    "city": "Richmond Hill",
    "citySlug": "richmond-hill",
    "province": "Ontario",
    "provinceSlug": "ontario",
    "country": "Canada",
    "street": "81 Silver Maple Rd",
    "phone": "+1 289-475-0118",
    "latitude": 43.9280137,
    "longitude": -79.4533057,
    "rating": 3.7
  },
  {
    "name": "Paradisos SPA | Thermale-Spa | Massage | Soins Esthétique | Salle de Réunion à Rigaud",
    "city": "Rigaud",
    "citySlug": "rigaud",
    "province": "Quebec",
    "provinceSlug": "quebec",
    "country": "Canada",
    "street": "119 Chem. Saint-Georges",
    "phone": "+1 438-866-8689",
    "latitude": 45.4457335,
    "longitude": -74.2624323,
    "rating": 4.7
  },
  {
    "name": "Noréa foyers-Au coin du feu-Rivière-du-Loup",
    "city": "Rivière-du-Loup",
    "citySlug": "rivire-du-loup",
    "province": "Quebec",
    "provinceSlug": "quebec",
    "country": "Canada",
    "street": "2 Rue Taché",
    "phone": "+1 418-860-5102",
    "latitude": 47.8455565,
    "longitude": -69.5374313,
    "rating": 4.9
  },
  {
    "name": "Sauna Lounge",
    "city": "Rothesay",
    "citySlug": "rothesay",
    "province": "New Brunswick",
    "provinceSlug": "new-brunswick",
    "country": "Canada",
    "street": "71 Marr Rd",
    "phone": "+1 506-216-0332",
    "latitude": 45.3921761,
    "longitude": -65.9706812
  },
  {
    "name": "VŪ Saunas",
    "city": "Russell",
    "citySlug": "russell",
    "province": "Ontario",
    "provinceSlug": "ontario",
    "country": "Canada",
    "street": "1772 Groves Rd",
    "phone": "+1 613-880-5393",
    "latitude": 45.2234937,
    "longitude": -75.322574,
    "rating": 5
  },
  {
    "name": "Spamania - location villa et mini loft",
    "city": "Saint-Boniface",
    "citySlug": "saint-boniface",
    "province": "Quebec",
    "provinceSlug": "quebec",
    "country": "Canada",
    "street": "4740 Bd Trudel E",
    "phone": "+1 819-852-4740",
    "latitude": 46.538689,
    "longitude": -72.7799991,
    "rating": 4.9
  },
  {
    "name": "Sauna Carpediem",
    "city": "Saint-Hubert",
    "citySlug": "saint-hubert",
    "province": "Quebec",
    "provinceSlug": "quebec",
    "country": "Canada",
    "street": "3481 Mnt Saint-Hubert",
    "phone": "+1 450-462-3481",
    "latitude": 45.4956032,
    "longitude": -73.427494,
    "rating": 4.1
  },
  {
    "name": "Savon d’Alep Sharbo Inc/ shower hi-tech",
    "city": "Saint-Laurent",
    "citySlug": "saint-laurent",
    "province": "Quebec",
    "provinceSlug": "quebec",
    "country": "Canada",
    "street": "1230 Rue Beaulac",
    "phone": "+1 514-927-1966",
    "latitude": 45.4968411,
    "longitude": -73.7087163,
    "rating": 4.8
  },
  {
    "name": "Banya Lenore",
    "city": "Sainte-Adèle",
    "citySlug": "sainte-adle",
    "province": "Quebec",
    "provinceSlug": "quebec",
    "country": "Canada",
    "street": "1990 Chem. Pierre Péladeau",
    "phone": "+1 450-745-4545",
    "latitude": 45.9977342,
    "longitude": -74.1123283,
    "rating": 5
  },
  {
    "name": "Sauna Concept Inc. Saunas, hammams et cuves thermales",
    "city": "Sainte-Anne-de-Beaupré",
    "citySlug": "sainte-anne-de-beaupr",
    "province": "Quebec",
    "provinceSlug": "quebec",
    "country": "Canada",
    "street": "9104 Bd Sainte-Anne",
    "phone": "+1 418-824-5151",
    "latitude": 47.0094078,
    "longitude": -70.9567617,
    "rating": 5
  },
  {
    "name": "Wakefield Sauna Co.",
    "city": "Sainte-Cécile-de-Masham",
    "citySlug": "sainte-ccile-de-masham",
    "province": "Quebec",
    "provinceSlug": "quebec",
    "country": "Canada",
    "street": "26 Chem. Richard",
    "phone": "+1 819-918-4698",
    "latitude": 45.6501757,
    "longitude": -75.988132,
    "rating": 5
  },
  {
    "name": "saunaspa.ca",
    "city": "Sainte-Martine",
    "citySlug": "sainte-martine",
    "province": "Quebec",
    "provinceSlug": "quebec",
    "country": "Canada",
    "street": "1415 Bd St Jean Baptiste O",
    "phone": "+1 514-222-0243",
    "latitude": 45.2197843,
    "longitude": -73.8209052,
    "rating": 5
  },
  {
    "name": "Sauna Viking - Home Sauna Canada, Outdoor Sauna, Indoor Sauna Montreal",
    "city": "Sainte-Thérèse",
    "citySlug": "sainte-thrse",
    "province": "Quebec",
    "provinceSlug": "quebec",
    "country": "Canada",
    "street": "209 Rue Mainville",
    "phone": "+1 514-482-7549",
    "latitude": 45.6448091,
    "longitude": -73.8333513,
    "rating": 4.3
  },
  {
    "name": "Dispo gym",
    "city": "Salaberry-de-Valleyfield",
    "citySlug": "salaberry-de-valleyfield",
    "province": "Quebec",
    "provinceSlug": "quebec",
    "country": "Canada",
    "street": "40 Av du Centenaire",
    "phone": "+1 450-377-9957",
    "latitude": 45.2595636,
    "longitude": -74.128588,
    "rating": 4.4
  },
  {
    "name": "Salty Pear Studio Gallery, B&B and Sauna",
    "city": "Salt Spring Island",
    "citySlug": "salt-spring-island",
    "province": "British Columbia",
    "provinceSlug": "british-columbia",
    "country": "Canada",
    "street": "Salt Spring Island, 279 Rainbow Rd",
    "phone": "+1 250-931-2252",
    "latitude": 48.8535898,
    "longitude": -123.5123428,
    "rating": 4.8
  },
  {
    "name": "Northern Hot Tubs Sarnia",
    "city": "Sarnia",
    "citySlug": "sarnia",
    "province": "Ontario",
    "provinceSlug": "ontario",
    "country": "Canada",
    "street": "1808 London Line Unit 1",
    "phone": "+1 519-337-4222",
    "latitude": 42.9842887,
    "longitude": -82.3203891,
    "rating": 5
  },
  {
    "name": "Body Kinesthetics",
    "city": "Sarnia",
    "citySlug": "sarnia",
    "province": "Ontario",
    "provinceSlug": "ontario",
    "country": "Canada",
    "street": "160 George St Suite 1202",
    "phone": "+1 226-778-4316",
    "latitude": 42.9747008,
    "longitude": -82.4055396
  },
  {
    "name": "Vitality Centre",
    "city": "Saskatoon",
    "citySlug": "saskatoon",
    "province": "Saskatchewan",
    "provinceSlug": "saskatchewan",
    "country": "Canada",
    "street": "211 Pinehouse Dr",
    "phone": "+1 306-290-5945",
    "latitude": 52.1683786,
    "longitude": -106.6256676,
    "rating": 5
  },
  {
    "name": "Backyard Living Center",
    "city": "Saskatoon",
    "citySlug": "saskatoon",
    "province": "Saskatchewan",
    "provinceSlug": "saskatchewan",
    "country": "Canada",
    "street": "3924 Brodsky Avenue #30",
    "phone": "+1 306-978-2952",
    "latitude": 52.199071,
    "longitude": -106.626975,
    "rating": 5
  },
  {
    "name": "Premium Home Leisure",
    "city": "Saskatoon",
    "citySlug": "saskatoon",
    "province": "Saskatchewan",
    "provinceSlug": "saskatchewan",
    "country": "Canada",
    "street": "101 Idylwyld Dr S",
    "phone": "+1 306-955-5466",
    "latitude": 52.1289053,
    "longitude": -106.6707666,
    "rating": 4.4
  },
  {
    "name": "Leisure Living",
    "city": "Sault Ste. Marie",
    "citySlug": "sault-ste-marie",
    "province": "Ontario",
    "provinceSlug": "ontario",
    "country": "Canada",
    "street": "484 Gran St",
    "phone": "+1 705-450-6484",
    "latitude": 46.5329819,
    "longitude": -84.2560644,
    "rating": 1
  },
  {
    "name": "Holistic Healing Algoma",
    "city": "Sault Ste. Marie",
    "citySlug": "sault-ste-marie",
    "province": "Ontario",
    "provinceSlug": "ontario",
    "country": "Canada",
    "street": "Inside Zero Gravity, 143 Great Northern Rd",
    "phone": "+1 705-989-4207",
    "latitude": 46.5296765,
    "longitude": -84.3200069,
    "rating": 5
  },
  {
    "name": "Sampo Sauna 1962",
    "city": "Scarborough",
    "citySlug": "scarborough",
    "province": "Ontario",
    "provinceSlug": "ontario",
    "country": "Canada",
    "street": "154 Kalmar Ave",
    "phone": "+1 416-691-2297",
    "latitude": 43.694763,
    "longitude": -79.270636,
    "rating": 3
  },
  {
    "name": "Sauna Québec",
    "city": "Senneterre",
    "citySlug": "senneterre",
    "province": "Quebec",
    "provinceSlug": "quebec",
    "country": "Canada",
    "street": "652 13e Avenue",
    "latitude": 48.393289,
    "longitude": -77.242656,
    "rating": 1
  },
  {
    "name": "Wood burn Sauna /Banya",
    "city": "Shannonville",
    "citySlug": "shannonville",
    "province": "Ontario",
    "provinceSlug": "ontario",
    "country": "Canada",
    "street": "6421 Old Highway 2",
    "phone": "+1 416-995-3757",
    "latitude": 44.2158198,
    "longitude": -77.1954232
  },
  {
    "name": "NYÜBU",
    "city": "Shawnigan Lake",
    "citySlug": "shawnigan-lake",
    "province": "British Columbia",
    "provinceSlug": "british-columbia",
    "country": "Canada",
    "street": "2795 Meadowview Rd",
    "phone": "+1 250-884-0455",
    "latitude": 48.6555483,
    "longitude": -123.6520129,
    "rating": 4.9
  },
  {
    "name": "Sauna Pekka",
    "city": "Sherbrooke",
    "citySlug": "sherbrooke",
    "province": "Quebec",
    "provinceSlug": "quebec",
    "country": "Canada",
    "street": "4245 R. Chauveau",
    "latitude": 45.3849036,
    "longitude": -71.9686841
  },
  {
    "name": "Monashee Saunas",
    "city": "Sicamous",
    "citySlug": "sicamous",
    "province": "British Columbia",
    "provinceSlug": "british-columbia",
    "country": "Canada",
    "street": "222 White Pine Crescent",
    "phone": "+1 778-489-5548",
    "latitude": 50.826921,
    "longitude": -118.98457,
    "rating": 3
  },
  {
    "name": "Pür Détente et Spa",
    "city": "Sorel-Tracy",
    "citySlug": "sorel-tracy",
    "province": "Quebec",
    "provinceSlug": "quebec",
    "country": "Canada",
    "street": "165 Bd Poliquin",
    "phone": "+1 450-556-1400",
    "latitude": 46.0392929,
    "longitude": -73.0849001,
    "rating": 4.4
  },
  {
    "name": "Copperwood Sauna",
    "city": "Spruce Grove",
    "citySlug": "spruce-grove",
    "province": "Alberta",
    "provinceSlug": "alberta",
    "country": "Canada",
    "street": "60 Shep St",
    "phone": "+1 780-914-2451",
    "latitude": 53.5372856,
    "longitude": -113.9022276,
    "rating": 5
  },
  {
    "name": "Nootka Saunas",
    "city": "Squamish",
    "citySlug": "squamish",
    "province": "British Columbia",
    "provinceSlug": "british-columbia",
    "country": "Canada",
    "street": "39465 Discovery Way Unit 102",
    "phone": "+1 778-652-3569",
    "latitude": 49.7255835,
    "longitude": -123.1523587,
    "rating": 5
  },
  {
    "name": "Secret Sauna Company",
    "city": "Squamish",
    "citySlug": "squamish",
    "province": "British Columbia",
    "provinceSlug": "british-columbia",
    "country": "Canada",
    "street": "38918 Progress Way Unit 4",
    "latitude": 49.7151141,
    "longitude": -123.1491496,
    "rating": 5
  },
  {
    "name": "AIKA Spa",
    "city": "Squamish-Lillooet",
    "citySlug": "squamish-lillooet",
    "province": "British Columbia",
    "provinceSlug": "british-columbia",
    "country": "Canada",
    "street": "13800 Squamish Valley Rd",
    "phone": "+1 778-877-6006",
    "latitude": 49.885169,
    "longitude": -123.2509117,
    "rating": 5
  },
  {
    "name": "Centre Le Rituel Massothérapie",
    "city": "St Come",
    "citySlug": "st-come",
    "province": "Quebec",
    "provinceSlug": "quebec",
    "country": "Canada",
    "street": "1421 Principal",
    "phone": "+1 450-883-0335",
    "latitude": 46.272405,
    "longitude": -73.7713018,
    "rating": 4.7
  },
  {
    "name": "St Thomas Health Club",
    "city": "St Thomas",
    "citySlug": "st-thomas",
    "province": "Ontario",
    "provinceSlug": "ontario",
    "country": "Canada",
    "street": "1 Silver St",
    "phone": "+1 519-633-8481",
    "latitude": 42.7967304,
    "longitude": -81.1627912,
    "rating": 4.4
  },
  {
    "name": "Saint Sauna",
    "city": "St. Albert",
    "citySlug": "st-albert",
    "province": "Alberta",
    "provinceSlug": "alberta",
    "country": "Canada",
    "street": "11 Greenbrier Crescent",
    "phone": "+1 780-380-3390",
    "latitude": 53.6221822,
    "longitude": -113.6356906
  },
  {
    "name": "InView Saunas",
    "city": "St. Catharines",
    "citySlug": "st-catharines",
    "province": "Ontario",
    "provinceSlug": "ontario",
    "country": "Canada",
    "street": "67 McCaffery Crescent",
    "phone": "+1 365-880-5983",
    "latitude": 43.124338,
    "longitude": -79.2684678
  },
  {
    "name": "Cedar House Sauna Rentals",
    "city": "Steinbach",
    "citySlug": "steinbach",
    "province": "Manitoba",
    "provinceSlug": "manitoba",
    "country": "Canada",
    "street": "Winston Pl",
    "phone": "+1 204-408-1885",
    "latitude": 49.52591,
    "longitude": -96.6611754,
    "rating": 5
  },
  {
    "name": "Kodiak Saunas",
    "city": "Stittsville",
    "citySlug": "stittsville",
    "province": "Ontario",
    "provinceSlug": "ontario",
    "country": "Canada",
    "street": "5906 Hazeldean Rd",
    "phone": "+1 613-288-0302",
    "latitude": 45.2771659,
    "longitude": -75.9206743,
    "rating": 4.9
  },
  {
    "name": "Otta Sauna",
    "city": "Stittsville",
    "citySlug": "stittsville",
    "province": "Ontario",
    "provinceSlug": "ontario",
    "country": "Canada",
    "street": "5358 Fernbank Rd",
    "phone": "+1 613-614-5123",
    "latitude": 45.2737784,
    "longitude": -75.8689602,
    "rating": 5
  },
  {
    "name": "Calore",
    "city": "Strathadam",
    "citySlug": "strathadam",
    "province": "New Brunswick",
    "provinceSlug": "new-brunswick",
    "country": "Canada",
    "street": "414 NB-425",
    "phone": "+1 506-308-0007",
    "latitude": 46.9666497,
    "longitude": -65.6396909,
    "rating": 5
  },
  {
    "name": "Backyard Retreats",
    "city": "Sturgeon Falls",
    "citySlug": "sturgeon-falls",
    "province": "Ontario",
    "provinceSlug": "ontario",
    "country": "Canada",
    "street": "ON-17",
    "phone": "+1 705-995-5479",
    "latitude": 46.3656268,
    "longitude": -79.896861
  },
  {
    "name": "Hustle Athletic Training",
    "city": "Summerside",
    "citySlug": "summerside",
    "province": "Prince Edward Island",
    "provinceSlug": "prince-edward-island",
    "country": "Canada",
    "street": "465 Water St",
    "phone": "+1 902-786-4102",
    "latitude": 46.3950657,
    "longitude": -63.798942,
    "rating": 5
  },
  {
    "name": "Homecraft Saunas",
    "city": "Surrey",
    "citySlug": "surrey",
    "province": "British Columbia",
    "provinceSlug": "british-columbia",
    "country": "Canada",
    "street": "9634 192 St Unit 105",
    "phone": "+1 604-888-3403",
    "latitude": 49.177774,
    "longitude": -122.690027,
    "rating": 4.9
  },
  {
    "name": "Salt Wellness Centre",
    "city": "Surrey",
    "citySlug": "surrey",
    "province": "British Columbia",
    "provinceSlug": "british-columbia",
    "country": "Canada",
    "street": "15303 31st Ave",
    "phone": "+1 778-294-7258",
    "latitude": 49.0589663,
    "longitude": -122.798569,
    "rating": 4.8
  },
  {
    "name": "Siberian Sauna LTD",
    "city": "Sylvan Lake",
    "citySlug": "sylvan-lake",
    "province": "Alberta",
    "provinceSlug": "alberta",
    "country": "Canada",
    "street": "4 Sylvaire Close #2",
    "phone": "+1 780-782-3755",
    "latitude": 52.3157831,
    "longitude": -114.0660218,
    "rating": 4.2
  },
  {
    "name": "Kamu Sauna",
    "city": "Ta Ta Creek",
    "citySlug": "ta-ta-creek",
    "province": "British Columbia",
    "provinceSlug": "british-columbia",
    "country": "Canada",
    "street": "Gadsby Rd",
    "phone": "+1 250-432-5022",
    "latitude": 49.782227,
    "longitude": -115.7983425,
    "rating": 5
  },
  {
    "name": "South Wabi Sawmill | South Wabi Saunas | Sauna Kits",
    "city": "Temiskaming Shores",
    "citySlug": "temiskaming-shores",
    "province": "Ontario",
    "provinceSlug": "ontario",
    "country": "Canada",
    "street": "584104 Mowat Landing Rd",
    "phone": "+1 705-672-3447",
    "latitude": 47.4616746,
    "longitude": -79.7337132,
    "rating": 5
  },
  {
    "name": "Sauna Toronto",
    "city": "Thornhill",
    "citySlug": "thornhill",
    "province": "Ontario",
    "provinceSlug": "ontario",
    "country": "Canada",
    "street": "8707 Dufferin St",
    "phone": "+1 647-893-5727",
    "latitude": 43.8288152,
    "longitude": -79.4782983,
    "rating": 4.8
  },
  {
    "name": "Be Well",
    "city": "Thornhill",
    "citySlug": "thornhill",
    "province": "Ontario",
    "provinceSlug": "ontario",
    "country": "Canada",
    "street": "8700 Bathurst St Unit 7",
    "phone": "+1 905-709-7979",
    "latitude": 43.8344685,
    "longitude": -79.4562972,
    "rating": 5
  },
  {
    "name": "ZEN Massage & Nutrition",
    "city": "Thorold",
    "citySlug": "thorold",
    "province": "Ontario",
    "provinceSlug": "ontario",
    "country": "Canada",
    "street": "6 Ormond St S",
    "phone": "+1 905-341-8870",
    "latitude": 43.1246883,
    "longitude": -79.198729,
    "rating": 4.5
  },
  {
    "name": "Kangas Sauna Restaurant/Sauna",
    "city": "Thunder Bay",
    "citySlug": "thunder-bay",
    "province": "Ontario",
    "provinceSlug": "ontario",
    "country": "Canada",
    "street": "379 Oliver Rd",
    "phone": "+1 807-344-6761",
    "latitude": 48.4290012,
    "longitude": -89.2377698,
    "rating": 4.3
  },
  {
    "name": "Finn Origins Sauna Lifestyle",
    "city": "Thunder Bay",
    "citySlug": "thunder-bay",
    "province": "Ontario",
    "provinceSlug": "ontario",
    "country": "Canada",
    "street": "251 Red River Rd Suite 13",
    "phone": "+1 807-629-8908",
    "latitude": 48.4354982,
    "longitude": -89.2218442
  },
  {
    "name": "Coconut Bay Spas",
    "city": "Thunder Bay",
    "citySlug": "thunder-bay",
    "province": "Ontario",
    "provinceSlug": "ontario",
    "country": "Canada",
    "street": "504 16 Ave",
    "phone": "+1 807-344-7722",
    "latitude": 48.4071081,
    "longitude": -89.2446571,
    "rating": 4.3
  },
  {
    "name": "MOVATI Athletic Thunder Bay",
    "city": "Thunder Bay",
    "citySlug": "thunder-bay",
    "province": "Ontario",
    "provinceSlug": "ontario",
    "country": "Canada",
    "street": "1185 Arthur St W",
    "phone": "+1 807-623-6223",
    "latitude": 48.3820724,
    "longitude": -89.3105438,
    "rating": 3.6
  },
  {
    "name": "Altea Active Toronto",
    "city": "Toronto",
    "citySlug": "toronto",
    "province": "Ontario",
    "provinceSlug": "ontario",
    "country": "Canada",
    "street": "25 Ordnance St",
    "phone": "+1 416-366-8551",
    "latitude": 43.6389465,
    "longitude": -79.4102478,
    "rating": 3.9
  },
  {
    "name": "Element Outdoor Sauna",
    "city": "Toronto",
    "citySlug": "toronto",
    "province": "Ontario",
    "provinceSlug": "ontario",
    "country": "Canada",
    "street": "257 Danforth Ave",
    "phone": "+1 416-262-4310",
    "latitude": 43.6768135,
    "longitude": -79.3549141,
    "rating": 5
  },
  {
    "name": "SPLASH STEAM AND SAUNA",
    "city": "Toronto",
    "citySlug": "toronto",
    "province": "Ontario",
    "provinceSlug": "ontario",
    "country": "Canada",
    "street": "1610 Dundas St W",
    "phone": "+1 416-538-6191",
    "latitude": 43.6500982,
    "longitude": -79.4354051,
    "rating": 3.4
  },
  {
    "name": "Spa Excess",
    "city": "Toronto",
    "citySlug": "toronto",
    "province": "Ontario",
    "provinceSlug": "ontario",
    "country": "Canada",
    "street": "105 Carlton St.",
    "phone": "+1 416-260-2363",
    "latitude": 43.6621785,
    "longitude": -79.3774083,
    "rating": 3.7
  },
  {
    "name": "Steamworks Baths",
    "city": "Toronto",
    "citySlug": "toronto",
    "province": "Ontario",
    "provinceSlug": "ontario",
    "country": "Canada",
    "street": "540 Church St",
    "phone": "+1 416-925-1571",
    "latitude": 43.6651063,
    "longitude": -79.3808915,
    "rating": 3.6
  },
  {
    "name": "Wellness Haus",
    "city": "Toronto",
    "citySlug": "toronto",
    "province": "Ontario",
    "provinceSlug": "ontario",
    "country": "Canada",
    "street": "413 Spadina Rd",
    "phone": "+1 437-826-1959",
    "latitude": 43.6885902,
    "longitude": -79.4123089,
    "rating": 4.9
  },
  {
    "name": "Home Sauna Specialties",
    "city": "Toronto",
    "citySlug": "toronto",
    "province": "Ontario",
    "provinceSlug": "ontario",
    "country": "Canada",
    "street": "75 Queens Wharf Rd #617",
    "phone": "+1 437-332-7943",
    "latitude": 43.6385443,
    "longitude": -79.3981279,
    "rating": 5
  },
  {
    "name": "Ritual Beauty & Wellness",
    "city": "Toronto",
    "citySlug": "toronto",
    "province": "Ontario",
    "provinceSlug": "ontario",
    "country": "Canada",
    "street": "571 Wellington St W",
    "phone": "+1 416-306-0040",
    "latitude": 43.642324,
    "longitude": -79.402916,
    "rating": 4.7
  },
  {
    "name": "Ravi",
    "city": "Toronto",
    "citySlug": "toronto",
    "province": "Ontario",
    "provinceSlug": "ontario",
    "country": "Canada",
    "street": "81 Bay St.",
    "latitude": 43.6440101,
    "longitude": -79.377539
  },
  {
    "name": "HealFlow Elevated Wellness",
    "city": "Toronto",
    "citySlug": "toronto",
    "province": "Ontario",
    "provinceSlug": "ontario",
    "country": "Canada",
    "street": "49 St Clair Ave W unit 102",
    "phone": "+1 437-983-4325",
    "latitude": 43.6875262,
    "longitude": -79.3959749,
    "rating": 4.9
  },
  {
    "name": "Bottomme",
    "city": "Toronto",
    "citySlug": "toronto",
    "province": "Ontario",
    "provinceSlug": "ontario",
    "country": "Canada",
    "street": "368 Church St",
    "latitude": 43.6600119,
    "longitude": -79.3788931
  },
  {
    "name": "Shape Fitness",
    "city": "Toronto",
    "citySlug": "toronto",
    "province": "Ontario",
    "provinceSlug": "ontario",
    "country": "Canada",
    "street": "1156 St Clair Ave W",
    "phone": "+1 416-651-0123",
    "latitude": 43.6782523,
    "longitude": -79.4425001,
    "rating": 4.6
  },
  {
    "name": "Spa at Four Seasons Toronto",
    "city": "Toronto",
    "citySlug": "toronto",
    "province": "Ontario",
    "provinceSlug": "ontario",
    "country": "Canada",
    "street": "60 Yorkville Ave",
    "phone": "+1 416-964-0411",
    "latitude": 43.6717567,
    "longitude": -79.3897605,
    "rating": 4.6
  },
  {
    "name": "Catalyst Health",
    "city": "Toronto",
    "citySlug": "toronto",
    "province": "Ontario",
    "provinceSlug": "ontario",
    "country": "Canada",
    "street": "162 Cumberland St #49",
    "phone": "+1 647-351-0101",
    "latitude": 43.6699407,
    "longitude": -79.3936476,
    "rating": 5
  },
  {
    "name": "The Athlete's Grid",
    "city": "Toronto",
    "citySlug": "toronto",
    "province": "Ontario",
    "provinceSlug": "ontario",
    "country": "Canada",
    "street": "18 Dovercourt Rd",
    "phone": "+1 647-236-3227",
    "latitude": 43.6417534,
    "longitude": -79.4219072,
    "rating": 4.9
  },
  {
    "name": "Hillcrest Centre For Health",
    "city": "Toronto",
    "citySlug": "toronto",
    "province": "Ontario",
    "provinceSlug": "ontario",
    "country": "Canada",
    "street": "832 St Clair Ave W",
    "phone": "+1 416-651-6602",
    "latitude": 43.6807172,
    "longitude": -79.4312033,
    "rating": 4.6
  },
  {
    "name": "Inner Harbour Goods",
    "city": "Toronto",
    "citySlug": "toronto",
    "province": "Ontario",
    "provinceSlug": "ontario",
    "country": "Canada",
    "street": "1431r Dufferin St",
    "latitude": 43.6714553,
    "longitude": -79.4400274,
    "rating": 5
  },
  {
    "name": "Luxury Cold Tubs",
    "city": "Toronto",
    "citySlug": "toronto",
    "province": "Ontario",
    "provinceSlug": "ontario",
    "country": "Canada",
    "street": "637 Lake Shore Blvd W",
    "phone": "+1 519-872-0970",
    "latitude": 43.6351374,
    "longitude": -79.4019446
  },
  {
    "name": "The Muskoka Sauna Co.",
    "city": "Torrance",
    "citySlug": "torrance",
    "province": "Ontario",
    "provinceSlug": "ontario",
    "country": "Canada",
    "street": "2195 Frank Miller Memorial Rte",
    "phone": "+1 705-204-8672",
    "latitude": 44.992032,
    "longitude": -79.4854576,
    "rating": 4.7
  },
  {
    "name": "Wärme Sauna",
    "city": "Tottenham",
    "citySlug": "tottenham",
    "province": "Ontario",
    "provinceSlug": "ontario",
    "country": "Canada",
    "street": "7247 2 Line",
    "phone": "+1 416-388-3551",
    "latitude": 43.9892522,
    "longitude": -79.833132,
    "rating": 5
  },
  {
    "name": "Guy Guénette Sauna Select Inc",
    "city": "Très-Saint-Rédempteur",
    "citySlug": "trs-saint-rdempteur",
    "province": "Quebec",
    "provinceSlug": "quebec",
    "country": "Canada",
    "street": "1339 Rte Principale",
    "phone": "+1 450-451-5581",
    "latitude": 45.4261213,
    "longitude": -74.4201771,
    "rating": 4.2
  },
  {
    "name": "Massages professionnels à Trois-Rivières - S&M Hammam Expérience",
    "city": "Trois-Rivières",
    "citySlug": "trois-rivires",
    "province": "Quebec",
    "provinceSlug": "quebec",
    "country": "Canada",
    "street": "6560 Bd Parent",
    "phone": "+1 873-387-0288",
    "latitude": 46.3585891,
    "longitude": -72.617604,
    "rating": 4.9
  },
  {
    "name": "St-Louis Pools Inc.",
    "city": "Trois-Rivières",
    "citySlug": "trois-rivires",
    "province": "Quebec",
    "provinceSlug": "quebec",
    "country": "Canada",
    "street": "621 Rue Raymond-Pépin",
    "phone": "+1 819-379-6374",
    "latitude": 46.4061173,
    "longitude": -72.5772466,
    "rating": 4.3
  },
  {
    "name": "Wildwood Saunas Ucluelet",
    "city": "Ucluelet",
    "citySlug": "ucluelet",
    "province": "British Columbia",
    "provinceSlug": "british-columbia",
    "country": "Canada",
    "street": "2695 Tofino Ucluelet Hwy",
    "phone": "+1 250-940-3731",
    "latitude": 48.9907292,
    "longitude": -125.5869889,
    "rating": 5
  },
  {
    "name": "Northern Sauna Rentals",
    "city": "Utterson",
    "citySlug": "utterson",
    "province": "Ontario",
    "provinceSlug": "ontario",
    "country": "Canada",
    "street": "931 Old Muskoka Rd",
    "latitude": 45.268805,
    "longitude": -79.2912645,
    "rating": 5
  },
  {
    "name": "Ziba's Spa",
    "city": "Uxbridge",
    "citySlug": "uxbridge",
    "province": "Ontario",
    "provinceSlug": "ontario",
    "country": "Canada",
    "street": "36 Ash St",
    "phone": "+1 905-852-2845",
    "latitude": 44.1100203,
    "longitude": -79.1233902,
    "rating": 5
  },
  {
    "name": "Main Street Pool & Spa",
    "city": "Uxbridge",
    "citySlug": "uxbridge",
    "province": "Ontario",
    "provinceSlug": "ontario",
    "country": "Canada",
    "street": "37 Main St N",
    "phone": "+1 905-862-4040",
    "latitude": 44.1106775,
    "longitude": -79.1206715,
    "rating": 4.8
  },
  {
    "name": "Sauna Sapien",
    "city": "Val-David",
    "citySlug": "val-david",
    "province": "Quebec",
    "provinceSlug": "quebec",
    "country": "Canada",
    "street": "1571 Rue James Guitet",
    "phone": "+1 873-648-3886",
    "latitude": 46.0299517,
    "longitude": -74.2234322,
    "rating": 5
  },
  {
    "name": "The Finnish Sauna",
    "city": "Vancouver",
    "citySlug": "vancouver",
    "province": "British Columbia",
    "provinceSlug": "british-columbia",
    "country": "Canada",
    "street": "4164 Pine Cres",
    "phone": "+1 778-751-4180",
    "latitude": 49.2485665,
    "longitude": -123.1472321,
    "rating": 5
  },
  {
    "name": "The Good Sauna",
    "city": "Vancouver",
    "citySlug": "vancouver",
    "province": "British Columbia",
    "provinceSlug": "british-columbia",
    "country": "Canada",
    "street": "1216 Franklin St",
    "phone": "+1 604-803-2845",
    "latitude": 49.2822128,
    "longitude": -123.0783914,
    "rating": 4.9
  },
  {
    "name": "Hastings Spa Reflexology Sauna",
    "city": "Vancouver",
    "citySlug": "vancouver",
    "province": "British Columbia",
    "provinceSlug": "british-columbia",
    "country": "Canada",
    "street": "766 E Hastings St",
    "phone": "+1 604-251-5455",
    "latitude": 49.2809296,
    "longitude": -123.087973,
    "rating": 4.7
  },
  {
    "name": "Steamworks Baths Vancouver",
    "city": "Vancouver",
    "citySlug": "vancouver",
    "province": "British Columbia",
    "provinceSlug": "british-columbia",
    "country": "Canada",
    "street": "123 W Pender St",
    "phone": "+1 604-974-0602",
    "latitude": 49.2813806,
    "longitude": -123.1081159,
    "rating": 3.5
  },
  {
    "name": "F212 Steam GYM & SPA",
    "city": "Vancouver",
    "citySlug": "vancouver",
    "province": "British Columbia",
    "provinceSlug": "british-columbia",
    "country": "Canada",
    "street": "1048 Davie St",
    "phone": "+1 604-689-9719",
    "latitude": 49.279748,
    "longitude": -123.1306769,
    "rating": 3.8
  },
  {
    "name": "Ritual Urban Retreat",
    "city": "Vancouver",
    "citySlug": "vancouver",
    "province": "British Columbia",
    "provinceSlug": "british-columbia",
    "country": "Canada",
    "street": "689 Denman St",
    "phone": "+1 604-505-1071",
    "latitude": 49.2923422,
    "longitude": -123.1343734,
    "rating": 4.9
  },
  {
    "name": "Halsa Float Spa- Kitsilano, Vancouver",
    "city": "Vancouver",
    "citySlug": "vancouver",
    "province": "British Columbia",
    "provinceSlug": "british-columbia",
    "country": "Canada",
    "street": "2028 W 4th Ave",
    "phone": "+1 604-738-0942",
    "latitude": 49.2679127,
    "longitude": -123.1512342,
    "rating": 4.8
  },
  {
    "name": "Vanguard Performance",
    "city": "Vancouver",
    "citySlug": "vancouver",
    "province": "British Columbia",
    "provinceSlug": "british-columbia",
    "country": "Canada",
    "street": "420 W Hastings St unit 200 bc",
    "phone": "+1 236-427-4283",
    "latitude": 49.2835659,
    "longitude": -123.111496,
    "rating": 5
  },
  {
    "name": "Tality Wellness Mt Pleasant",
    "city": "Vancouver",
    "citySlug": "vancouver",
    "province": "BC",
    "provinceSlug": "bc",
    "country": "Canada",
    "street": "Floor 5, 107 E 3rd Ave Buzzer 501",
    "phone": "+1 604-674-0977",
    "latitude": 49.2684938,
    "longitude": -123.1025126,
    "rating": 4.8
  },
  {
    "name": "Helius International",
    "city": "Vancouver",
    "citySlug": "vancouver",
    "province": "British Columbia",
    "provinceSlug": "british-columbia",
    "country": "Canada",
    "street": "8292 St George St",
    "phone": "+1 604-773-8389",
    "latitude": 49.20975,
    "longitude": -123.093788,
    "rating": 4.9
  },
  {
    "name": "Beautiful-Minds Deep Muscle Massage",
    "city": "Vancouver",
    "citySlug": "vancouver",
    "province": "British Columbia",
    "provinceSlug": "british-columbia",
    "country": "Canada",
    "street": "2622 W Broadway",
    "phone": "+1 604-569-3816",
    "latitude": 49.2638331,
    "longitude": -123.1654089,
    "rating": 4
  },
  {
    "name": "Under the Rose Sauna Club",
    "city": "Vancouver",
    "citySlug": "vancouver",
    "province": "British Columbia",
    "provinceSlug": "british-columbia",
    "country": "Canada",
    "street": "1024 Main St Unit 10",
    "phone": "+1 236-983-8439",
    "latitude": 49.2752807,
    "longitude": -123.0995752,
    "rating": 5
  },
  {
    "name": "Yaletown Wellness - Mainland",
    "city": "Vancouver",
    "citySlug": "vancouver",
    "province": "British Columbia",
    "provinceSlug": "british-columbia",
    "country": "Canada",
    "street": "1028 Mainland St",
    "phone": "+1 778-655-8687",
    "latitude": 49.2759671,
    "longitude": -123.119747,
    "rating": 4.9
  },
  {
    "name": "Vankleek Saunas",
    "city": "Vankleek Hill",
    "citySlug": "vankleek-hill",
    "province": "Ontario",
    "provinceSlug": "ontario",
    "country": "Canada",
    "street": "868 Pleasant Corner Rd",
    "phone": "+1 613-306-2384",
    "latitude": 45.548876,
    "longitude": -74.6277508,
    "rating": 5
  },
  {
    "name": "Saunafin - Saunas & Steambaths",
    "city": "Vaughan",
    "citySlug": "vaughan",
    "province": "Ontario",
    "provinceSlug": "ontario",
    "country": "Canada",
    "street": "106 Rayette Rd Unit 1",
    "phone": "+1 800-387-7029",
    "latitude": 43.8073111,
    "longitude": -79.4980726,
    "rating": 4.7
  },
  {
    "name": "Liv Transformed - Body Transformation Studio",
    "city": "Vaughan",
    "citySlug": "vaughan",
    "province": "Ontario",
    "provinceSlug": "ontario",
    "country": "Canada",
    "street": "2050 Steeles Ave W #1",
    "phone": "+1 905-761-5888",
    "latitude": 43.7835289,
    "longitude": -79.4880465,
    "rating": 4.8
  },
  {
    "name": "Club Sudo",
    "city": "Vaughan",
    "citySlug": "vaughan",
    "province": "Ontario",
    "provinceSlug": "ontario",
    "country": "Canada",
    "street": "16 Famous Ave Unit 145",
    "phone": "+1 905-851-1711",
    "latitude": 43.788185,
    "longitude": -79.5452484,
    "rating": 5
  },
  {
    "name": "Infrared Sauna",
    "city": "Vaughan",
    "citySlug": "vaughan",
    "province": "Ontario",
    "provinceSlug": "ontario",
    "country": "Canada",
    "street": "3110 Rutherford Rd",
    "phone": "+1 289-472-5066",
    "latitude": 43.8320326,
    "longitude": -79.5334281
  },
  {
    "name": "Sauna Kits testimonials | DreamSauna",
    "city": "Vaughan",
    "citySlug": "vaughan",
    "province": "Ontario",
    "provinceSlug": "ontario",
    "country": "Canada",
    "street": "117 Planchet Rd",
    "phone": "+1 905-553-5358",
    "latitude": 43.822988,
    "longitude": -79.499446
  },
  {
    "name": "Wellness Shop at Jacuzzi Vaughan",
    "city": "Vaughan",
    "citySlug": "vaughan",
    "province": "Ontario",
    "provinceSlug": "ontario",
    "country": "Canada",
    "street": "3110 Rutherford Rd",
    "phone": "+1 289-472-5066",
    "latitude": 43.8319411,
    "longitude": -79.5334347,
    "rating": 4.7
  },
  {
    "name": "Brian Rheeder Luxury Saunas",
    "city": "Vernon",
    "citySlug": "vernon",
    "province": "British Columbia",
    "provinceSlug": "british-columbia",
    "country": "Canada",
    "street": "6098 Lynx Dr",
    "phone": "+1 905-806-9705",
    "latitude": 50.2984484,
    "longitude": -119.1821181
  },
  {
    "name": "HAVN Saunas",
    "city": "Victoria",
    "citySlug": "victoria",
    "province": "British Columbia",
    "provinceSlug": "british-columbia",
    "country": "Canada",
    "street": "920 Wharf St",
    "phone": "+1 250-508-0999",
    "latitude": 48.4229867,
    "longitude": -123.3704293,
    "rating": 4.8
  },
  {
    "name": "South Island Sauna",
    "city": "Victoria",
    "citySlug": "victoria",
    "province": "British Columbia",
    "provinceSlug": "british-columbia",
    "country": "Canada",
    "street": "1486 Finlayson Pl",
    "phone": "+1 778-533-7608",
    "latitude": 48.4480237,
    "longitude": -123.344992,
    "rating": 5
  },
  {
    "name": "Aerth Saunas",
    "city": "Victoria",
    "citySlug": "victoria",
    "province": "British Columbia",
    "provinceSlug": "british-columbia",
    "country": "Canada",
    "street": "330 Quebec St",
    "phone": "+1 250-419-5459",
    "latitude": 48.4215373,
    "longitude": -123.3752792
  },
  {
    "name": "Sun Stream Infrared Sauna",
    "city": "Victoria",
    "citySlug": "victoria",
    "province": "British Columbia",
    "provinceSlug": "british-columbia",
    "country": "Canada",
    "street": "2585 Vista Bay Rd",
    "phone": "+1 604-351-5649",
    "latitude": 48.4579814,
    "longitude": -123.3013322,
    "rating": 4.9
  },
  {
    "name": "Float House Victoria",
    "city": "Victoria",
    "citySlug": "victoria",
    "province": "British Columbia",
    "provinceSlug": "british-columbia",
    "country": "Canada",
    "street": "662 Herald St",
    "phone": "+1 778-433-3166",
    "latitude": 48.4303771,
    "longitude": -123.365242,
    "rating": 4.8
  },
  {
    "name": "Victoria Athletic Club",
    "city": "Victoria",
    "citySlug": "victoria",
    "province": "British Columbia",
    "provinceSlug": "british-columbia",
    "country": "Canada",
    "street": "463 Belleville St.",
    "phone": "+1 250-380-4460",
    "latitude": 48.4203533,
    "longitude": -123.3720264,
    "rating": 4.3
  },
  {
    "name": "Glow Tan",
    "city": "Victoria",
    "citySlug": "victoria",
    "province": "British Columbia",
    "provinceSlug": "british-columbia",
    "country": "Canada",
    "street": "847 Goldstream Ave",
    "phone": "+1 250-391-1245",
    "latitude": 48.4491331,
    "longitude": -123.5036371,
    "rating": 4.7
  },
  {
    "name": "Centre D'Amincissement Ideal",
    "city": "Victoriaville",
    "citySlug": "victoriaville",
    "province": "Quebec",
    "provinceSlug": "quebec",
    "country": "Canada",
    "street": "138 Boul. des Bois-Francs N",
    "phone": "+1 819-752-9265",
    "latitude": 46.0608434,
    "longitude": -71.9545395,
    "rating": 4.6
  },
  {
    "name": "Sydenham Sauna Co.",
    "city": "Wallaceburg",
    "citySlug": "wallaceburg",
    "province": "Ontario",
    "provinceSlug": "ontario",
    "country": "Canada",
    "street": "7698 Base Line",
    "phone": "+1 519-350-2055",
    "latitude": 42.5784297,
    "longitude": -82.3409292
  },
  {
    "name": "Waterscape Hot Tubs & Pools",
    "city": "Waterloo",
    "citySlug": "waterloo",
    "province": "Ontario",
    "provinceSlug": "ontario",
    "country": "Canada",
    "street": "490 Weber St N #1",
    "phone": "+1 519-747-7754",
    "latitude": 43.490864,
    "longitude": -80.5349226,
    "rating": 4.7
  },
  {
    "name": "Cedarland Lumber & Sauna Co. Ltd",
    "city": "Waterloo",
    "citySlug": "waterloo",
    "province": "Ontario",
    "provinceSlug": "ontario",
    "country": "Canada",
    "street": "445 Conestogo Rd",
    "phone": "+1 519-880-9600",
    "latitude": 43.4974306,
    "longitude": -80.5319381,
    "rating": 4.2
  },
  {
    "name": "Northern Leisure Cambridge",
    "city": "Waterloo",
    "citySlug": "waterloo",
    "province": "Ontario",
    "provinceSlug": "ontario",
    "country": "Canada",
    "street": "546 Mooring Post Ln",
    "phone": "+1 519-707-3101",
    "latitude": 43.5095228,
    "longitude": -80.5082826
  },
  {
    "name": "MOVATI Athletic Waterloo",
    "city": "Waterloo",
    "citySlug": "waterloo",
    "province": "Ontario",
    "provinceSlug": "ontario",
    "country": "Canada",
    "street": "405 The Boardwalk",
    "phone": "+1 519-584-0909",
    "latitude": 43.4381945,
    "longitude": -80.5656729,
    "rating": 3.5
  },
  {
    "name": "Floating Sweat Lodge",
    "city": "West Kelowna",
    "citySlug": "west-kelowna",
    "province": "British Columbia",
    "provinceSlug": "british-columbia",
    "country": "Canada",
    "street": "540 Lindley Dr",
    "phone": "+1 403-815-8005",
    "latitude": 49.893592,
    "longitude": -119.537968,
    "rating": 5
  },
  {
    "name": "Northern Lights Cedar Barrel Saunas",
    "city": "West Saint Paul",
    "citySlug": "west-saint-paul",
    "province": "Manitoba",
    "provinceSlug": "manitoba",
    "country": "Canada",
    "street": "835 Kapelus Dr",
    "phone": "+1 800-759-8990",
    "latitude": 49.9825287,
    "longitude": -97.0947279
  },
  {
    "name": "Kw iL Sten Sauna",
    "city": "Westbank",
    "citySlug": "westbank",
    "province": "British Columbia",
    "provinceSlug": "british-columbia",
    "country": "Canada",
    "street": "2011 Porcupine Ct",
    "phone": "+1 250-859-6989",
    "latitude": 49.8372726,
    "longitude": -119.5913362
  },
  {
    "name": "Elevation Fitness Centre",
    "city": "Wetaskiwin",
    "citySlug": "wetaskiwin",
    "province": "Alberta",
    "provinceSlug": "alberta",
    "country": "Canada",
    "street": "4904 51 St",
    "phone": "+1 780-352-0818",
    "latitude": 52.969223,
    "longitude": -113.3769159,
    "rating": 4.7
  },
  {
    "name": "Whistler Sauna Rentals",
    "city": "Whistler",
    "citySlug": "whistler",
    "province": "British Columbia",
    "provinceSlug": "british-columbia",
    "country": "Canada",
    "street": "4309 Village Stroll",
    "latitude": 50.1147812,
    "longitude": -122.9552804
  },
  {
    "name": "The Spa at Four Seasons Resort Whistler",
    "city": "Whistler",
    "citySlug": "whistler",
    "province": "British Columbia",
    "provinceSlug": "british-columbia",
    "country": "Canada",
    "street": "4591 Blackcomb Wy",
    "phone": "+1 604-935-3400",
    "latitude": 50.1190137,
    "longitude": -122.9447627,
    "rating": 4.7
  },
  {
    "name": "Wellness Shop at Jacuzzi Whitby",
    "city": "Whitby",
    "citySlug": "whitby",
    "province": "Ontario",
    "provinceSlug": "ontario",
    "country": "Canada",
    "street": "1540 Dundas St E Unit 3",
    "phone": "+1 289-545-0002",
    "latitude": 43.886672,
    "longitude": -78.9141849,
    "rating": 4.6
  },
  {
    "name": "Crystal Woods Retreat",
    "city": "Wilkesport",
    "citySlug": "wilkesport",
    "province": "Ontario",
    "provinceSlug": "ontario",
    "country": "Canada",
    "street": "2302 McCallum Line",
    "phone": "+1 519-312-4195",
    "latitude": 42.7388955,
    "longitude": -82.2917423,
    "rating": 5
  },
  {
    "name": "Level Massage Therapy + Sauna",
    "city": "Windsor",
    "citySlug": "windsor",
    "province": "Ontario",
    "provinceSlug": "ontario",
    "country": "Canada",
    "street": "1821 Provincial Rd",
    "phone": "+1 519-567-0898",
    "latitude": 42.2552547,
    "longitude": -82.9734677,
    "rating": 5
  },
  {
    "name": "MOVATI Athletic Windsor",
    "city": "Windsor",
    "citySlug": "windsor",
    "province": "Ontario",
    "provinceSlug": "ontario",
    "country": "Canada",
    "street": "650 Division Rd",
    "phone": "+1 519-916-0452",
    "latitude": 42.2699519,
    "longitude": -82.9966875,
    "rating": 4
  },
  {
    "name": "Sauna Mobile",
    "city": "Winkler",
    "citySlug": "winkler",
    "province": "Manitoba",
    "provinceSlug": "manitoba",
    "country": "Canada",
    "street": "262 8 St S",
    "phone": "+1 204-362-7964",
    "latitude": 49.1712927,
    "longitude": -97.9436845,
    "rating": 5
  },
  {
    "name": "Blue Bay Sauna",
    "city": "Winkler",
    "citySlug": "winkler",
    "province": "Manitoba",
    "provinceSlug": "manitoba",
    "country": "Canada",
    "street": "880 Adora Ave",
    "phone": "+1 431-775-0041",
    "latitude": 49.1846711,
    "longitude": -97.9047175,
    "rating": 5
  },
  {
    "name": "The Backyard Barrel Sauna Rentals, Sales & Installations",
    "city": "Winnipeg",
    "citySlug": "winnipeg",
    "province": "Manitoba",
    "provinceSlug": "manitoba",
    "country": "Canada",
    "street": "441 Laxdal Rd",
    "phone": "+1 431-482-1840",
    "latitude": 49.8600802,
    "longitude": -97.2595661,
    "rating": 5
  },
  {
    "name": "Rē Sauna",
    "city": "Winnipeg",
    "citySlug": "winnipeg",
    "province": "Manitoba",
    "provinceSlug": "manitoba",
    "country": "Canada",
    "street": "1539 Kenaston Blvd Unit 200",
    "phone": "+1 204-487-1483",
    "latitude": 49.8276409,
    "longitude": -97.2056429,
    "rating": 4.8
  },
  {
    "name": "AR Barrel & Pentagon Saunas. Sales,Rentals & installation.",
    "city": "Winnipeg",
    "citySlug": "winnipeg",
    "province": "Manitoba",
    "provinceSlug": "manitoba",
    "country": "Canada",
    "street": "Kinsbourne Green",
    "phone": "+1 204-332-1848",
    "latitude": 49.8046406,
    "longitude": -97.1025138,
    "rating": 5
  },
  {
    "name": "LCL Spas - Winnipeg Hot Tubs & Spas",
    "city": "Winnipeg",
    "citySlug": "winnipeg",
    "province": "Manitoba",
    "provinceSlug": "manitoba",
    "country": "Canada",
    "street": "801Berry Street",
    "phone": "+1 204-783-1112",
    "latitude": 49.9017947,
    "longitude": -97.2089032,
    "rating": 4.8
  },
  {
    "name": "NatCan Weight Loss and Skin Clinic",
    "city": "Woodbridge",
    "citySlug": "woodbridge",
    "province": "Ontario",
    "provinceSlug": "ontario",
    "country": "Canada",
    "street": "281 Woodbridge Ave Suite 22",
    "phone": "+1 416-400-6280",
    "latitude": 43.7827475,
    "longitude": -79.5980177,
    "rating": 5
  },
  {
    "name": "Ottawa Sauna",
    "city": "Woodlawn",
    "citySlug": "woodlawn",
    "province": "Ontario",
    "provinceSlug": "ontario",
    "country": "Canada",
    "street": "134 Lane St",
    "phone": "+1 613-292-3773",
    "latitude": 45.5000194,
    "longitude": -76.0760074
  },
  {
    "name": "Action Wellness Centre - A Division of Action Medical Home Health",
    "city": "Woodstock",
    "citySlug": "woodstock",
    "province": "Ontario",
    "provinceSlug": "ontario",
    "country": "Canada",
    "street": "225 Main St",
    "phone": "+1 519-421-4545",
    "latitude": 43.126231,
    "longitude": -80.767214,
    "rating": 4.7
  },
  {
    "name": "REPS 24 Training Fitness & Tanning",
    "city": "Woodstock",
    "citySlug": "woodstock",
    "province": "New Brunswick",
    "provinceSlug": "new-brunswick",
    "country": "Canada",
    "street": "401 Connell St Unit 1",
    "phone": "+1 506-328-7377",
    "latitude": 46.17088,
    "longitude": -67.6026992,
    "rating": 4.6
  },
  {
    "name": "Moonlight Sauna Inc",
    "city": "Wroxeter",
    "citySlug": "wroxeter",
    "province": "Ontario",
    "provinceSlug": "ontario",
    "country": "Canada",
    "street": "44229 Amberley Rd Unit A",
    "phone": "+1 800-754-6606",
    "latitude": 43.79067,
    "longitude": -81.09842,
    "rating": 4.9
  },
  {
    "name": "Fire and Ice-Mobile saunas and tubs",
    "city": "Ymir",
    "citySlug": "ymir",
    "province": "British Columbia",
    "provinceSlug": "british-columbia",
    "country": "Canada",
    "phone": "+1 250-357-9398",
    "latitude": 49.2606567,
    "longitude": -117.2111506
  }
]